[
  {
    "name": "Москва",
    "lat": 55.754047,
    "lon": 37.620405,
    "population_thousands": 12655.1,
    "region": "Москва",
    "timezone_raw": "Europe/Moscow",
    "timezone": "Europe/Moscow"
  },
  {
    "name": "Санкт-Петербург",
    "lat": 59.939131,
    "lon": 30.3159,
    "population_thousands": 5384.3,
    "region": "Санкт-Петербург",
    "timezone_raw": "Europe/Moscow",
    "timezone": "Europe/Moscow"
  },
  {
    "name": "Новосибирск",
    "lat": 55.028191,
    "lon": 82.921149,
    "population_thousands": 1625.6,
    "region": "Новосибирская область",
    "timezone_raw": "Asia/Jakarta",
    "timezone": "Asia/Krasnoyarsk"
  },
  {
    "name": "Екатеринбург",
    "lat": 56.838522,
    "lon": 60.605491,
    "population_thousands": 1493.7,
    "region": "Свердловская область",
    "timezone_raw": "Asia/Karachi",
    "timezone": "Asia/Yekaterinburg"
  },
  {
    "name": "Казань",
    "lat": 55.794358,
    "lon": 49.111497,
    "population_thousands": 1257.4,
    "region": "Республика Татарстан",
    "timezone_raw": "Europe/Moscow",
    "timezone": "Europe/Moscow"
  },
  {
    "name": "Нижний Новгород",
    "lat": 56.324063,
    "lon": 44.005391,
    "population_thousands": 1252.2,
    "region": "Нижегородская область",
    "timezone_raw": "Europe/Moscow",
    "timezone": "Europe/Moscow"
  },
  {
    "name": "Челябинск",
    "lat": 55.160262,
    "lon": 61.400808,
    "population_thousands": 1196.7,
    "region": "Челябинская область",
    "timezone_raw": "Asia/Karachi",
    "timezone": "Asia/Yekaterinburg"
  },
  {
    "name": "Самара",
    "lat": 53.195031,
    "lon": 50.106952,
    "population_thousands": 1156.7,
    "region": "Самарская область",
    "timezone_raw": "Asia/Dubai",
    "timezone": "Europe/Samara"
  },
  {
    "name": "Омск",
    "lat": 54.984857,
    "lon": 73.367452,
    "population_thousands": 1154.5,
    "region": "Омская область",
    "timezone_raw": "Asia/Dhaka",
    "timezone": "Asia/Omsk"
  },
  {
    "name": "Ростов-на-Дону",
    "lat": 47.222457,
    "lon": 39.718803,
    "population_thousands": 1137.9,
    "region": "Ростовская область",
    "timezone_raw": "Europe/Moscow",
    "timezone": "Europe/Moscow"
  },
  {
    "name": "Уфа",
    "lat": 54.734944,
    "lon": 55.957847,
    "population_thousands": 1128.8,
    "region": "Республика Башкортостан",
    "timezone_raw": "Asia/Karachi",
    "timezone": "Asia/Yekaterinburg"
  },
  {
    "name": "Красноярск",
    "lat": 56.009388,
    "lon": 92.852481,
    "population_thousands": 1093.8,
    "region": "Красноярский край",
    "timezone_raw": "Asia/Jakarta",
    "timezone": "Asia/Krasnoyarsk"
  },
  {
    "name": "Воронеж",
    "lat": 51.659333,
    "lon": 39.196923,
    "population_thousands": 1058.3,
    "region": "Воронежская область",
    "timezone_raw": "Europe/Moscow",
    "timezone": "Europe/Moscow"
  },
  {
    "name": "Пермь",
    "lat": 58.010258,
    "lon": 56.234203,
    "population_thousands": 1055.4,
    "region": "Пермский край",
    "timezone_raw": "Asia/Karachi",
    "timezone": "Asia/Yekaterinburg"
  },
  {
    "name": "Волгоград",
    "lat": 48.707004,
    "lon": 44.517034,
    "population_thousands": 1009.0,
    "region": "Волгоградская область",
    "timezone_raw": "Europe/Moscow",
    "timezone": "Europe/Moscow"
  },
  {
    "name": "Краснодар",
    "lat": 45.04016,
    "lon": 38.975965,
    "population_thousands": 932.6,
    "region": "Краснодарский край",
    "timezone_raw": "Europe/Moscow",
    "timezone": "Europe/Moscow"
  },
  {
    "name": "Саратов",
    "lat": 51.533557,
    "lon": 46.034257,
    "population_thousands": 838.0,
    "region": "Саратовская область",
    "timezone_raw": "Asia/Dubai",
    "timezone": "Europe/Samara"
  },
  {
    "name": "Тюмень",
    "lat": 57.152974,
    "lon": 65.53441,
    "population_thousands": 807.3,
    "region": "Тюменская область",
    "timezone_raw": "Asia/Karachi",
    "timezone": "Asia/Yekaterinburg"
  },
  {
    "name": "Тольятти",
    "lat": 53.520535,
    "lon": 49.389403,
    "population_thousands": 699.4,
    "region": "Самарская область",
    "timezone_raw": "Asia/Dubai",
    "timezone": "Europe/Samara"
  },
  {
    "name": "Ижевск",
    "lat": 56.852738,
    "lon": 53.21149,
    "population_thousands": 648.1,
    "region": "Удмуртская Республика",
    "timezone_raw": "Asia/Dubai",
    "timezone": "Europe/Samara"
  },
  {
    "name": "Барнаул",
    "lat": 53.347997,
    "lon": 83.779806,
    "population_thousands": 632.4,
    "region": "Алтайский край",
    "timezone_raw": "Asia/Jakarta",
    "timezone": "Asia/Krasnoyarsk"
  },
  {
    "name": "Ульяновск",
    "lat": 54.307941,
    "lon": 48.374849,
    "population_thousands": 627.7,
    "region": "Ульяновская область",
    "timezone_raw": "Asia/Dubai",
    "timezone": "Europe/Samara"
  },
  {
    "name": "Иркутск",
    "lat": 52.286404,
    "lon": 104.280747,
    "population_thousands": 623.6,
    "region": "Иркутская область",
    "timezone_raw": "Asia/Manila",
    "timezone": "Asia/Irkutsk"
  },
  {
    "name": "Хабаровск",
    "lat": 48.464726,
    "lon": 135.059894,
    "population_thousands": 616.4,
    "region": "Хабаровский край",
    "timezone_raw": "Australia/Brisbane",
    "timezone": "Asia/Vladivostok"
  },
  {
    "name": "Ярославль",
    "lat": 57.621548,
    "lon": 39.897741,
    "population_thousands": 608.4,
    "region": "Ярославская область",
    "timezone_raw": "Europe/Moscow",
    "timezone": "Europe/Moscow"
  },
  {
    "name": "Владивосток",
    "lat": 43.11649,
    "lon": 131.882394,
    "population_thousands": 606.6,
    "region": "Приморский край",
    "timezone_raw": "Australia/Brisbane",
    "timezone": "Asia/Vladivostok"
  },
  {
    "name": "Махачкала",
    "lat": 42.984916,
    "lon": 47.504718,
    "population_thousands": 603.5,
    "region": "Республика Дагестан",
    "timezone_raw": "Europe/Moscow",
    "timezone": "Europe/Moscow"
  },
  {
    "name": "Томск",
    "lat": 56.48458,
    "lon": 84.948158,
    "population_thousands": 576.6,
    "region": "Томская область",
    "timezone_raw": "Asia/Jakarta",
    "timezone": "Asia/Krasnoyarsk"
  },
  {
    "name": "Оренбург",
    "lat": 51.787509,
    "lon": 55.101883,
    "population_thousands": 572.2,
    "region": "Оренбургская область",
    "timezone_raw": "Asia/Karachi",
    "timezone": "Asia/Yekaterinburg"
  },
  {
    "name": "Кемерово",
    "lat": 55.391065,
    "lon": 86.046778,
    "population_thousands": 556.4,
    "region": "Кемеровская область - Кузбасс",
    "timezone_raw": "Asia/Jakarta",
    "timezone": "Asia/Krasnoyarsk"
  },
  {
    "name": "Новокузнецк",
    "lat": 53.794315,
    "lon": 87.214275,
    "population_thousands": 549.4,
    "region": "Кемеровская область - Кузбасс",
    "timezone_raw": "Asia/Jakarta",
    "timezone": "Asia/Krasnoyarsk"
  },
  {
    "name": "Рязань",
    "lat": 54.625445,
    "lon": 39.735861,
    "population_thousands": 539.3,
    "region": "Рязанская область",
    "timezone_raw": "Europe/Moscow",
    "timezone": "Europe/Moscow"
  },
  {
    "name": "Набережные Челны",
    "lat": 55.743462,
    "lon": 52.395916,
    "population_thousands": 533.8,
    "region": "Республика Татарстан",
    "timezone_raw": "Europe/Moscow",
    "timezone": "Europe/Moscow"
  },
  {
    "name": "Астрахань",
    "lat": 46.365565,
    "lon": 48.055924,
    "population_thousands": 529.8,
    "region": "Астраханская область",
    "timezone_raw": "Asia/Dubai",
    "timezone": "Europe/Samara"
  },
  {
    "name": "Пенза",
    "lat": 53.175331,
    "lon": 45.034863,
    "population_thousands": 520.3,
    "region": "Пензенская область",
    "timezone_raw": "Europe/Moscow",
    "timezone": "Europe/Moscow"
  },
  {
    "name": "Киров",
    "lat": 58.603526,
    "lon": 49.66793,
    "population_thousands": 518.3,
    "region": "Кировская область",
    "timezone_raw": "Europe/Moscow",
    "timezone": "Europe/Moscow"
  },
  {
    "name": "Севастополь",
    "lat": 44.616701,
    "lon": 33.525355,
    "population_thousands": 510.0,
    "region": "Севастополь",
    "timezone_raw": "Europe/Moscow",
    "timezone": "Europe/Moscow"
  },
  {
    "name": "Липецк",
    "lat": 52.610249,
    "lon": 39.594788,
    "population_thousands": 508.6,
    "region": "Липецкая область",
    "timezone_raw": "Europe/Moscow",
    "timezone": "Europe/Moscow"
  },
  {
    "name": "Балашиха",
    "lat": 55.796389,
    "lon": 37.938283,
    "population_thousands": 507.4,
    "region": "Московская область",
    "timezone_raw": "Europe/Moscow",
    "timezone": "Europe/Moscow"
  },
  {
    "name": "Чебоксары",
    "lat": 56.14383,
    "lon": 47.248978,
    "population_thousands": 497.6,
    "region": "Чувашская Республика",
    "timezone_raw": "Europe/Moscow",
    "timezone": "Europe/Moscow"
  },
  {
    "name": "Калининград",
    "lat": 54.70747,
    "lon": 20.507324,
    "population_thousands": 489.3,
    "region": "Калининградская область",
    "timezone_raw": "Africa/Johannesburg",
    "timezone": "Europe/Kaliningrad"
  },
  {
    "name": "Тула",
    "lat": 54.192056,
    "lon": 37.615384,
    "population_thousands": 475.2,
    "region": "Тульская область",
    "timezone_raw": "Europe/Moscow",
    "timezone": "Europe/Moscow"
  },
  {
    "name": "Курск",
    "lat": 51.730364,
    "lon": 36.19256,
    "population_thousands": 453.0,
    "region": "Курская область",
    "timezone_raw": "Europe/Moscow",
    "timezone": "Europe/Moscow"
  },
  {
    "name": "Ставрополь",
    "lat": 45.044516,
    "lon": 41.968966,
    "population_thousands": 450.7,
    "region": "Ставропольский край",
    "timezone_raw": "Europe/Moscow",
    "timezone": "Europe/Moscow"
  },
  {
    "name": "Сочи",
    "lat": 43.585455,
    "lon": 39.723155,
    "population_thousands": 443.6,
    "region": "Краснодарский край",
    "timezone_raw": "Europe/Moscow",
    "timezone": "Europe/Moscow"
  },
  {
    "name": "Улан-Удэ",
    "lat": 51.833585,
    "lon": 107.584222,
    "population_thousands": 439.1,
    "region": "Республика Бурятия",
    "timezone_raw": "Asia/Manila",
    "timezone": "Asia/Irkutsk"
  },
  {
    "name": "Тверь",
    "lat": 56.858606,
    "lon": 35.911676,
    "population_thousands": 425.1,
    "region": "Тверская область",
    "timezone_raw": "Europe/Moscow",
    "timezone": "Europe/Moscow"
  },
  {
    "name": "Магнитогорск",
    "lat": 53.407215,
    "lon": 58.979144,
    "population_thousands": 413.3,
    "region": "Челябинская область",
    "timezone_raw": "Asia/Karachi",
    "timezone": "Asia/Yekaterinburg"
  },
  {
    "name": "Иваново",
    "lat": 56.999379,
    "lon": 40.972827,
    "population_thousands": 404.6,
    "region": "Ивановская область",
    "timezone_raw": "Europe/Moscow",
    "timezone": "Europe/Moscow"
  },
  {
    "name": "Брянск",
    "lat": 53.241954,
    "lon": 34.365215,
    "population_thousands": 402.7,
    "region": "Брянская область",
    "timezone_raw": "Europe/Moscow",
    "timezone": "Europe/Moscow"
  },
  {
    "name": "Белгород",
    "lat": 50.597647,
    "lon": 36.585665,
    "population_thousands": 394.1,
    "region": "Белгородская область",
    "timezone_raw": "Europe/Moscow",
    "timezone": "Europe/Moscow"
  },
  {
    "name": "Сургут",
    "lat": 61.254108,
    "lon": 73.396159,
    "population_thousands": 380.6,
    "region": "Тюменская область",
    "timezone_raw": "Asia/Karachi",
    "timezone": "Asia/Yekaterinburg"
  },
  {
    "name": "Владимир",
    "lat": 56.12808,
    "lon": 40.408438,
    "population_thousands": 356.9,
    "region": "Владимирская область",
    "timezone_raw": "Europe/Moscow",
    "timezone": "Europe/Moscow"
  },
  {
    "name": "Чита",
    "lat": 52.034014,
    "lon": 113.4994,
    "population_thousands": 351.8,
    "region": "Забайкальский край",
    "timezone_raw": "Asia/Tokyo",
    "timezone": "Asia/Yakutsk"
  },
  {
    "name": "Нижний Тагил",
    "lat": 57.910126,
    "lon": 59.981285,
    "population_thousands": 349.0,
    "region": "Свердловская область",
    "timezone_raw": "Asia/Karachi",
    "timezone": "Asia/Yekaterinburg"
  },
  {
    "name": "Архангельск",
    "lat": 64.539429,
    "lon": 40.516961,
    "population_thousands": 347.0,
    "region": "Архангельская область",
    "timezone_raw": "Europe/Moscow",
    "timezone": "Europe/Moscow"
  },
  {
    "name": "Симферополь",
    "lat": 44.948295,
    "lon": 34.100115,
    "population_thousands": 342.0,
    "region": "Республика Крым",
    "timezone_raw": "Europe/Moscow",
    "timezone": "Europe/Moscow"
  },
  {
    "name": "Калуга",
    "lat": 54.505985,
    "lon": 36.251624,
    "population_thousands": 332.0,
    "region": "Калужская область",
    "timezone_raw": "Europe/Moscow",
    "timezone": "Europe/Moscow"
  },
  {
    "name": "Смоленск",
    "lat": 54.782635,
    "lon": 32.045251,
    "population_thousands": 325.5,
    "region": "Смоленская область",
    "timezone_raw": "Europe/Moscow",
    "timezone": "Europe/Moscow"
  },
  {
    "name": "Волжский",
    "lat": 48.797821,
    "lon": 44.746254,
    "population_thousands": 323.9,
    "region": "Волгоградская область",
    "timezone_raw": "Europe/Moscow",
    "timezone": "Europe/Moscow"
  },
  {
    "name": "Якутск",
    "lat": 62.02814,
    "lon": 129.732589,
    "population_thousands": 323.0,
    "region": "Республика Саха (Якутия)",
    "timezone_raw": "Asia/Tokyo",
    "timezone": "Asia/Yakutsk"
  },
  {
    "name": "Саранск",
    "lat": 54.180933,
    "lon": 45.186263,
    "population_thousands": 320.6,
    "region": "Республика Мордовия",
    "timezone_raw": "Europe/Moscow",
    "timezone": "Europe/Moscow"
  },
  {
    "name": "Череповец",
    "lat": 59.126921,
    "lon": 37.90905,
    "population_thousands": 314.8,
    "region": "Вологодская область",
    "timezone_raw": "Europe/Moscow",
    "timezone": "Europe/Moscow"
  },
  {
    "name": "Курган",
    "lat": 55.444388,
    "lon": 65.316196,
    "population_thousands": 312.4,
    "region": "Курганская область",
    "timezone_raw": "Asia/Karachi",
    "timezone": "Asia/Yekaterinburg"
  },
  {
    "name": "Вологда",
    "lat": 59.24839,
    "lon": 39.835566,
    "population_thousands": 310.3,
    "region": "Вологодская область",
    "timezone_raw": "Europe/Moscow",
    "timezone": "Europe/Moscow"
  },
  {
    "name": "Орел",
    "lat": 52.96713,
    "lon": 36.069643,
    "population_thousands": 308.8,
    "region": "Орловская область",
    "timezone_raw": "Europe/Moscow",
    "timezone": "Europe/Moscow"
  },
  {
    "name": "Подольск",
    "lat": 55.438932,
    "lon": 37.570348,
    "population_thousands": 308.1,
    "region": "Московская область",
    "timezone_raw": "Europe/Moscow",
    "timezone": "Europe/Moscow"
  },
  {
    "name": "Грозный",
    "lat": 43.318014,
    "lon": 45.698291,
    "population_thousands": 305.9,
    "region": "Чеченская Республика",
    "timezone_raw": "Europe/Moscow",
    "timezone": "Europe/Moscow"
  },
  {
    "name": "Владикавказ",
    "lat": 43.020588,
    "lon": 44.681918,
    "population_thousands": 303.6,
    "region": "Республика Северная Осетия – Алания",
    "timezone_raw": "Europe/Moscow",
    "timezone": "Europe/Moscow"
  },
  {
    "name": "Тамбов",
    "lat": 52.721315,
    "lon": 41.452264,
    "population_thousands": 292.1,
    "region": "Тамбовская область",
    "timezone_raw": "Europe/Moscow",
    "timezone": "Europe/Moscow"
  },
  {
    "name": "Мурманск",
    "lat": 69.007721,
    "lon": 33.068587,
    "population_thousands": 287.8,
    "region": "Мурманская область",
    "timezone_raw": "Europe/Moscow",
    "timezone": "Europe/Moscow"
  },
  {
    "name": "Петрозаводск",
    "lat": 61.789126,
    "lon": 34.359643,
    "population_thousands": 281.0,
    "region": "Республика Карелия",
    "timezone_raw": "Europe/Moscow",
    "timezone": "Europe/Moscow"
  },
  {
    "name": "Нижневартовск",
    "lat": 60.93967,
    "lon": 76.569618,
    "population_thousands": 277.7,
    "region": "Тюменская область",
    "timezone_raw": "Asia/Karachi",
    "timezone": "Asia/Yekaterinburg"
  },
  {
    "name": "Кострома",
    "lat": 57.768,
    "lon": 40.927,
    "population_thousands": 276.9,
    "region": "Костромская область",
    "timezone_raw": "Europe/Moscow",
    "timezone": "Europe/Moscow"
  },
  {
    "name": "Стерлитамак",
    "lat": 53.630086,
    "lon": 55.931709,
    "population_thousands": 276.4,
    "region": "Республика Башкортостан",
    "timezone_raw": "Asia/Karachi",
    "timezone": "Asia/Yekaterinburg"
  },
  {
    "name": "Новороссийск",
    "lat": 44.723503,
    "lon": 37.768614,
    "population_thousands": 275.0,
    "region": "Краснодарский край",
    "timezone_raw": "Europe/Moscow",
    "timezone": "Europe/Moscow"
  },
  {
    "name": "Йошкар-Ола",
    "lat": 56.634366,
    "lon": 47.899971,
    "population_thousands": 274.7,
    "region": "Республика Марий Эл",
    "timezone_raw": "Europe/Moscow",
    "timezone": "Europe/Moscow"
  },
  {
    "name": "Химки",
    "lat": 55.888657,
    "lon": 37.43037,
    "population_thousands": 259.6,
    "region": "Московская область",
    "timezone_raw": "Europe/Moscow",
    "timezone": "Europe/Moscow"
  },
  {
    "name": "Таганрог",
    "lat": 47.209492,
    "lon": 38.935099,
    "population_thousands": 248.6,
    "region": "Ростовская область",
    "timezone_raw": "Europe/Moscow",
    "timezone": "Europe/Moscow"
  },
  {
    "name": "Комсомольск-на-Амуре",
    "lat": 50.549894,
    "lon": 137.007941,
    "population_thousands": 244.8,
    "region": "Хабаровский край",
    "timezone_raw": "Australia/Brisbane",
    "timezone": "Asia/Vladivostok"
  },
  {
    "name": "Сыктывкар",
    "lat": 61.668662,
    "lon": 50.835815,
    "population_thousands": 244.4,
    "region": "Республика Коми",
    "timezone_raw": "Europe/Moscow",
    "timezone": "Europe/Moscow"
  },
  {
    "name": "Нижнекамск",
    "lat": 55.631361,
    "lon": 51.814467,
    "population_thousands": 240.0,
    "region": "Республика Татарстан",
    "timezone_raw": "Europe/Moscow",
    "timezone": "Europe/Moscow"
  },
  {
    "name": "Нальчик",
    "lat": 43.484546,
    "lon": 43.60713,
    "population_thousands": 239.6,
    "region": "Кабардино-Балкарская Республика",
    "timezone_raw": "Europe/Moscow",
    "timezone": "Europe/Moscow"
  },
  {
    "name": "Мытищи",
    "lat": 55.910578,
    "lon": 37.736358,
    "population_thousands": 235.5,
    "region": "Московская область",
    "timezone_raw": "Europe/Moscow",
    "timezone": "Europe/Moscow"
  },
  {
    "name": "Шахты",
    "lat": 47.708529,
    "lon": 40.215985,
    "population_thousands": 230.3,
    "region": "Ростовская область",
    "timezone_raw": "Europe/Moscow",
    "timezone": "Europe/Moscow"
  },
  {
    "name": "Дзержинск",
    "lat": 56.237605,
    "lon": 43.459942,
    "population_thousands": 229.0,
    "region": "Нижегородская область",
    "timezone_raw": "Europe/Moscow",
    "timezone": "Europe/Moscow"
  },
  {
    "name": "Энгельс",
    "lat": 51.4854,
    "lon": 46.126722,
    "population_thousands": 227.0,
    "region": "Саратовская область",
    "timezone_raw": "Asia/Dubai",
    "timezone": "Europe/Samara"
  },
  {
    "name": "Орск",
    "lat": 51.229428,
    "lon": 58.475278,
    "population_thousands": 226.5,
    "region": "Оренбургская область",
    "timezone_raw": "Asia/Karachi",
    "timezone": "Asia/Yekaterinburg"
  },
  {
    "name": "Благовещенск",
    "lat": 50.290659,
    "lon": 127.527198,
    "population_thousands": 226.4,
    "region": "Амурская область",
    "timezone_raw": "Asia/Tokyo",
    "timezone": "Asia/Yakutsk"
  },
  {
    "name": "Братск",
    "lat": 56.151311,
    "lon": 101.634004,
    "population_thousands": 226.3,
    "region": "Иркутская область",
    "timezone_raw": "Asia/Manila",
    "timezone": "Asia/Irkutsk"
  },
  {
    "name": "Королев",
    "lat": 55.916177,
    "lon": 37.854542,
    "population_thousands": 225.9,
    "region": "Московская область",
    "timezone_raw": "Europe/Moscow",
    "timezone": "Europe/Moscow"
  },
  {
    "name": "Великий Новгород",
    "lat": 58.521385,
    "lon": 31.275539,
    "population_thousands": 224.9,
    "region": "Новгородская область",
    "timezone_raw": "Europe/Moscow",
    "timezone": "Europe/Moscow"
  },
  {
    "name": "Ангарск",
    "lat": 52.544879,
    "lon": 103.888543,
    "population_thousands": 224.6,
    "region": "Иркутская область",
    "timezone_raw": "Asia/Manila",
    "timezone": "Asia/Irkutsk"
  },
  {
    "name": "Старый Оскол",
    "lat": 51.29671,
    "lon": 37.835018,
    "population_thousands": 223.9,
    "region": "Белгородская область",
    "timezone_raw": "Europe/Moscow",
    "timezone": "Europe/Moscow"
  },
  {
    "name": "Псков",
    "lat": 57.819442,
    "lon": 28.33172,
    "population_thousands": 210.3,
    "region": "Псковская область",
    "timezone_raw": "Europe/Moscow",
    "timezone": "Europe/Moscow"
  },
  {
    "name": "Люберцы",
    "lat": 55.700399,
    "lon": 37.960624,
    "population_thousands": 205.3,
    "region": "Московская область",
    "timezone_raw": "Europe/Moscow",
    "timezone": "Europe/Moscow"
  },
  {
    "name": "Южно-Сахалинск",
    "lat": 46.959163,
    "lon": 142.737976,
    "population_thousands": 200.6,
    "region": "Сахалинская область",
    "timezone_raw": "Asia/Sakhalin",
    "timezone": "Asia/Magadan"
  },
  {
    "name": "Бийск",
    "lat": 52.539386,
    "lon": 85.213845,
    "population_thousands": 199.5,
    "region": "Алтайский край",
    "timezone_raw": "Asia/Jakarta",
    "timezone": "Asia/Krasnoyarsk"
  },
  {
    "name": "Прокопьевск",
    "lat": 53.860427,
    "lon": 86.718358,
    "population_thousands": 190.3,
    "region": "Кемеровская область - Кузбасс",
    "timezone_raw": "Asia/Jakarta",
    "timezone": "Asia/Krasnoyarsk"
  },
  {
    "name": "Армавир",
    "lat": 45.001215,
    "lon": 41.132417,
    "population_thousands": 189.0,
    "region": "Краснодарский край",
    "timezone_raw": "Europe/Moscow",
    "timezone": "Europe/Moscow"
  },
  {
    "name": "Балаково",
    "lat": 52.022423,
    "lon": 47.782776,
    "population_thousands": 187.5,
    "region": "Саратовская область",
    "timezone_raw": "Asia/Dubai",
    "timezone": "Europe/Samara"
  },
  {
    "name": "Абакан",
    "lat": 53.722333,
    "lon": 91.443672,
    "population_thousands": 186.8,
    "region": "Республика Хакасия",
    "timezone_raw": "Asia/Jakarta",
    "timezone": "Asia/Krasnoyarsk"
  },
  {
    "name": "Рыбинск",
    "lat": 58.04855,
    "lon": 38.858412,
    "population_thousands": 184.6,
    "region": "Ярославская область",
    "timezone_raw": "Europe/Moscow",
    "timezone": "Europe/Moscow"
  },
  {
    "name": "Северодвинск",
    "lat": 64.562539,
    "lon": 39.818093,
    "population_thousands": 182.0,
    "region": "Архангельская область",
    "timezone_raw": "Europe/Moscow",
    "timezone": "Europe/Moscow"
  },
  {
    "name": "Норильск",
    "lat": 69.348998,
    "lon": 88.200985,
    "population_thousands": 181.8,
    "region": "Красноярский край",
    "timezone_raw": "Asia/Jakarta",
    "timezone": "Asia/Krasnoyarsk"
  },
  {
    "name": "Петропавловск-Камчатский",
    "lat": 53.036908,
    "lon": 158.655925,
    "population_thousands": 179.6,
    "region": "Камчатский край",
    "timezone_raw": "Pacific/Fiji",
    "timezone": "Asia/Kamchatka"
  },
  {
    "name": "Красногорск",
    "lat": 55.83172,
    "lon": 37.329527,
    "population_thousands": 175.6,
    "region": "Московская область",
    "timezone_raw": "Europe/Moscow",
    "timezone": "Europe/Moscow"
  },
  {
    "name": "Уссурийск",
    "lat": 43.797182,
    "lon": 131.951823,
    "population_thousands": 173.6,
    "region": "Приморский край",
    "timezone_raw": "Australia/Brisbane",
    "timezone": "Asia/Vladivostok"
  },
  {
    "name": "Волгодонск",
    "lat": 47.516534,
    "lon": 42.198495,
    "population_thousands": 171.4,
    "region": "Ростовская область",
    "timezone_raw": "Europe/Moscow",
    "timezone": "Europe/Moscow"
  },
  {
    "name": "Новочеркасск",
    "lat": 47.411919,
    "lon": 40.10421,
    "population_thousands": 168.0,
    "region": "Ростовская область",
    "timezone_raw": "Europe/Moscow",
    "timezone": "Europe/Moscow"
  },
  {
    "name": "Сызрань",
    "lat": 53.155867,
    "lon": 48.474463,
    "population_thousands": 167.1,
    "region": "Самарская область",
    "timezone_raw": "Asia/Dubai",
    "timezone": "Europe/Samara"
  },
  {
    "name": "Каменск-Уральский",
    "lat": 56.414962,
    "lon": 61.918867,
    "population_thousands": 166.1,
    "region": "Свердловская область",
    "timezone_raw": "Asia/Karachi",
    "timezone": "Asia/Yekaterinburg"
  },
  {
    "name": "Златоуст",
    "lat": 55.17149,
    "lon": 59.672555,
    "population_thousands": 163.9,
    "region": "Челябинская область",
    "timezone_raw": "Asia/Karachi",
    "timezone": "Asia/Yekaterinburg"
  },
  {
    "name": "Альметьевск",
    "lat": 54.901462,
    "lon": 52.297047,
    "population_thousands": 158.4,
    "region": "Республика Татарстан",
    "timezone_raw": "Europe/Moscow",
    "timezone": "Europe/Moscow"
  },
  {
    "name": "Электросталь",
    "lat": 55.784729,
    "lon": 38.444705,
    "population_thousands": 156.0,
    "region": "Московская область",
    "timezone_raw": "Europe/Moscow",
    "timezone": "Europe/Moscow"
  },
  {
    "name": "Керчь",
    "lat": 45.356263,
    "lon": 36.467451,
    "population_thousands": 151.5,
    "region": "Республика Крым",
    "timezone_raw": "Europe/Moscow",
    "timezone": "Europe/Moscow"
  },
  {
    "name": "Миасс",
    "lat": 55.045646,
    "lon": 60.107757,
    "population_thousands": 151.5,
    "region": "Челябинская область",
    "timezone_raw": "Asia/Karachi",
    "timezone": "Asia/Yekaterinburg"
  },
  {
    "name": "Салават",
    "lat": 53.361697,
    "lon": 55.924522,
    "population_thousands": 150.5,
    "region": "Республика Башкортостан",
    "timezone_raw": "Asia/Karachi",
    "timezone": "Asia/Yekaterinburg"
  },
  {
    "name": "Пятигорск",
    "lat": 44.041091,
    "lon": 43.066155,
    "population_thousands": 147.9,
    "region": "Ставропольский край",
    "timezone_raw": "Europe/Moscow",
    "timezone": "Europe/Moscow"
  },
  {
    "name": "Копейск",
    "lat": 55.116665,
    "lon": 61.617919,
    "population_thousands": 147.6,
    "region": "Челябинская область",
    "timezone_raw": "Asia/Karachi",
    "timezone": "Asia/Yekaterinburg"
  },
  {
    "name": "Находка",
    "lat": 42.823937,
    "lon": 132.892736,
    "population_thousands": 145.2,
    "region": "Приморский край",
    "timezone_raw": "Australia/Brisbane",
    "timezone": "Asia/Vladivostok"
  },
  {
    "name": "Хасавюрт",
    "lat": 43.250467,
    "lon": 46.585129,
    "population_thousands": 145.1,
    "region": "Республика Дагестан",
    "timezone_raw": "Europe/Moscow",
    "timezone": "Europe/Moscow"
  },
  {
    "name": "Рубцовск",
    "lat": 51.501207,
    "lon": 81.20787,
    "population_thousands": 141.6,
    "region": "Алтайский край",
    "timezone_raw": "Asia/Jakarta",
    "timezone": "Asia/Krasnoyarsk"
  },
  {
    "name": "Майкоп",
    "lat": 44.609827,
    "lon": 40.100661,
    "population_thousands": 141.5,
    "region": "Республика Адыгея",
    "timezone_raw": "Europe/Moscow",
    "timezone": "Europe/Moscow"
  },
  {
    "name": "Коломна",
    "lat": 55.102814,
    "lon": 38.7531,
    "population_thousands": 140.1,
    "region": "Московская область",
    "timezone_raw": "Europe/Moscow",
    "timezone": "Europe/Moscow"
  },
  {
    "name": "Березники",
    "lat": 59.407992,
    "lon": 56.803943,
    "population_thousands": 139.2,
    "region": "Пермский край",
    "timezone_raw": "Asia/Karachi",
    "timezone": "Asia/Yekaterinburg"
  },
  {
    "name": "Домодедово",
    "lat": 55.436328,
    "lon": 37.766498,
    "population_thousands": 137.2,
    "region": "Московская область",
    "timezone_raw": "Europe/Moscow",
    "timezone": "Europe/Moscow"
  },
  {
    "name": "Ковров",
    "lat": 56.355435,
    "lon": 41.317058,
    "population_thousands": 135.7,
    "region": "Владимирская область",
    "timezone_raw": "Europe/Moscow",
    "timezone": "Europe/Moscow"
  },
  {
    "name": "Одинцово",
    "lat": 55.678945,
    "lon": 37.263686,
    "population_thousands": 135.5,
    "region": "Московская область",
    "timezone_raw": "Europe/Moscow",
    "timezone": "Europe/Moscow"
  },
  {
    "name": "Нефтекамск",
    "lat": 56.088377,
    "lon": 54.248306,
    "population_thousands": 131.1,
    "region": "Республика Башкортостан",
    "timezone_raw": "Asia/Karachi",
    "timezone": "Asia/Yekaterinburg"
  },
  {
    "name": "Кисловодск",
    "lat": 43.905204,
    "lon": 42.716872,
    "population_thousands": 128.8,
    "region": "Ставропольский край",
    "timezone_raw": "Europe/Moscow",
    "timezone": "Europe/Moscow"
  },
  {
    "name": "Батайск",
    "lat": 47.13833,
    "lon": 39.750718,
    "population_thousands": 127.9,
    "region": "Ростовская область",
    "timezone_raw": "Europe/Moscow",
    "timezone": "Europe/Moscow"
  },
  {
    "name": "Нефтеюганск",
    "lat": 61.088268,
    "lon": 72.616408,
    "population_thousands": 127.3,
    "region": "Тюменская область",
    "timezone_raw": "Asia/Karachi",
    "timezone": "Asia/Yekaterinburg"
  },
  {
    "name": "Новочебоксарск",
    "lat": 56.109498,
    "lon": 47.479111,
    "population_thousands": 127.2,
    "region": "Чувашская Республика",
    "timezone_raw": "Europe/Moscow",
    "timezone": "Europe/Moscow"
  },
  {
    "name": "Серпухов",
    "lat": 54.922647,
    "lon": 37.403386,
    "population_thousands": 126.3,
    "region": "Московская область",
    "timezone_raw": "Europe/Moscow",
    "timezone": "Europe/Moscow"
  },
  {
    "name": "Щелково",
    "lat": 55.92338,
    "lon": 37.978371,
    "population_thousands": 126.1,
    "region": "Московская область",
    "timezone_raw": "Europe/Moscow",
    "timezone": "Europe/Moscow"
  },
  {
    "name": "Дербент",
    "lat": 42.058966,
    "lon": 48.290745,
    "population_thousands": 125.8,
    "region": "Республика Дагестан",
    "timezone_raw": "Europe/Moscow",
    "timezone": "Europe/Moscow"
  },
  {
    "name": "Каспийск",
    "lat": 42.891601,
    "lon": 47.636707,
    "population_thousands": 124.0,
    "region": "Республика Дагестан",
    "timezone_raw": "Europe/Moscow",
    "timezone": "Europe/Moscow"
  },
  {
    "name": "Черкесск",
    "lat": 44.226942,
    "lon": 42.04667,
    "population_thousands": 123.2,
    "region": "Карачаево-Черкесская Республика",
    "timezone_raw": "Europe/Moscow",
    "timezone": "Europe/Moscow"
  },
  {
    "name": "Назрань",
    "lat": 43.225784,
    "lon": 44.764578,
    "population_thousands": 122.3,
    "region": "Республика Ингушетия",
    "timezone_raw": "Europe/Moscow",
    "timezone": "Europe/Moscow"
  },
  {
    "name": "Новомосковск",
    "lat": 54.010908,
    "lon": 38.291402,
    "population_thousands": 122.3,
    "region": "Тульская область",
    "timezone_raw": "Europe/Moscow",
    "timezone": "Europe/Moscow"
  },
  {
    "name": "Раменское",
    "lat": 55.549513,
    "lon": 38.272891,
    "population_thousands": 121.9,
    "region": "Московская область",
    "timezone_raw": "Europe/Moscow",
    "timezone": "Europe/Moscow"
  },
  {
    "name": "Первоуральск",
    "lat": 56.908009,
    "lon": 59.942926,
    "population_thousands": 120.8,
    "region": "Свердловская область",
    "timezone_raw": "Asia/Karachi",
    "timezone": "Asia/Yekaterinburg"
  },
  {
    "name": "Кызыл",
    "lat": 51.719105,
    "lon": 94.437688,
    "population_thousands": 119.4,
    "region": "Республика Тыва",
    "timezone_raw": "Asia/Jakarta",
    "timezone": "Asia/Krasnoyarsk"
  },
  {
    "name": "Орехово-Зуево",
    "lat": 55.815142,
    "lon": 38.986982,
    "population_thousands": 118.3,
    "region": "Московская область",
    "timezone_raw": "Europe/Moscow",
    "timezone": "Europe/Moscow"
  },
  {
    "name": "Новый Уренгой",
    "lat": 66.083943,
    "lon": 76.680968,
    "population_thousands": 118.0,
    "region": "Тюменская область",
    "timezone_raw": "Asia/Karachi",
    "timezone": "Asia/Yekaterinburg"
  },
  {
    "name": "Обнинск",
    "lat": 55.094314,
    "lon": 36.612164,
    "population_thousands": 117.4,
    "region": "Калужская область",
    "timezone_raw": "Europe/Moscow",
    "timezone": "Europe/Moscow"
  },
  {
    "name": "Невинномысск",
    "lat": 44.622603,
    "lon": 41.947672,
    "population_thousands": 116.7,
    "region": "Ставропольский край",
    "timezone_raw": "Europe/Moscow",
    "timezone": "Europe/Moscow"
  },
  {
    "name": "Долгопрудный",
    "lat": 55.9386,
    "lon": 37.510102,
    "population_thousands": 116.0,
    "region": "Московская область",
    "timezone_raw": "Europe/Moscow",
    "timezone": "Europe/Moscow"
  },
  {
    "name": "Октябрьский",
    "lat": 54.481531,
    "lon": 53.465597,
    "population_thousands": 114.1,
    "region": "Республика Башкортостан",
    "timezone_raw": "Asia/Karachi",
    "timezone": "Asia/Yekaterinburg"
  },
  {
    "name": "Димитровград",
    "lat": 54.216793,
    "lon": 49.626258,
    "population_thousands": 113.5,
    "region": "Ульяновская область",
    "timezone_raw": "Asia/Dubai",
    "timezone": "Europe/Samara"
  },
  {
    "name": "Ессентуки",
    "lat": 44.044619,
    "lon": 42.858865,
    "population_thousands": 113.1,
    "region": "Ставропольский край",
    "timezone_raw": "Europe/Moscow",
    "timezone": "Europe/Moscow"
  },
  {
    "name": "Камышин",
    "lat": 50.065153,
    "lon": 45.38442,
    "population_thousands": 109.9,
    "region": "Волгоградская область",
    "timezone_raw": "Europe/Moscow",
    "timezone": "Europe/Moscow"
  },
  {
    "name": "Евпатория",
    "lat": 45.190629,
    "lon": 33.367634,
    "population_thousands": 108.2,
    "region": "Республика Крым",
    "timezone_raw": "Europe/Moscow",
    "timezone": "Europe/Moscow"
  },
  {
    "name": "Реутов",
    "lat": 55.758262,
    "lon": 37.861855,
    "population_thousands": 108.1,
    "region": "Московская область",
    "timezone_raw": "Europe/Moscow",
    "timezone": "Europe/Moscow"
  },
  {
    "name": "Жуковский",
    "lat": 55.599803,
    "lon": 38.12243,
    "population_thousands": 107.6,
    "region": "Московская область",
    "timezone_raw": "Europe/Moscow",
    "timezone": "Europe/Moscow"
  },
  {
    "name": "Пушкино",
    "lat": 56.010364,
    "lon": 37.84714,
    "population_thousands": 107.6,
    "region": "Московская область",
    "timezone_raw": "Europe/Moscow",
    "timezone": "Europe/Moscow"
  },
  {
    "name": "Муром",
    "lat": 55.563031,
    "lon": 42.023136,
    "population_thousands": 107.0,
    "region": "Владимирская область",
    "timezone_raw": "Europe/Moscow",
    "timezone": "Europe/Moscow"
  },
  {
    "name": "Ноябрьск",
    "lat": 63.201804,
    "lon": 75.451058,
    "population_thousands": 106.9,
    "region": "Тюменская область",
    "timezone_raw": "Asia/Karachi",
    "timezone": "Asia/Yekaterinburg"
  },
  {
    "name": "Новошахтинск",
    "lat": 47.757773,
    "lon": 39.93637,
    "population_thousands": 106.6,
    "region": "Ростовская область",
    "timezone_raw": "Europe/Moscow",
    "timezone": "Europe/Moscow"
  },
  {
    "name": "Северск",
    "lat": 56.603128,
    "lon": 84.880993,
    "population_thousands": 106.5,
    "region": "Томская область",
    "timezone_raw": "Asia/Jakarta",
    "timezone": "Asia/Krasnoyarsk"
  },
  {
    "name": "Артем",
    "lat": 43.350167,
    "lon": 132.159617,
    "population_thousands": 105.7,
    "region": "Приморский край",
    "timezone_raw": "Australia/Brisbane",
    "timezone": "Asia/Vladivostok"
  },
  {
    "name": "Ачинск",
    "lat": 56.253907,
    "lon": 90.47944,
    "population_thousands": 105.5,
    "region": "Красноярский край",
    "timezone_raw": "Asia/Jakarta",
    "timezone": "Asia/Krasnoyarsk"
  },
  {
    "name": "Бердск",
    "lat": 54.758216,
    "lon": 83.107061,
    "population_thousands": 104.3,
    "region": "Новосибирская область",
    "timezone_raw": "Asia/Jakarta",
    "timezone": "Asia/Krasnoyarsk"
  },
  {
    "name": "Ногинск",
    "lat": 55.868613,
    "lon": 38.46221,
    "population_thousands": 104.0,
    "region": "Московская область",
    "timezone_raw": "Europe/Moscow",
    "timezone": "Europe/Moscow"
  },
  {
    "name": "Арзамас",
    "lat": 55.394581,
    "lon": 43.840814,
    "population_thousands": 104.0,
    "region": "Нижегородская область",
    "timezone_raw": "Europe/Moscow",
    "timezone": "Europe/Moscow"
  },
  {
    "name": "Элиста",
    "lat": 46.308334,
    "lon": 44.270209,
    "population_thousands": 103.1,
    "region": "Республика Калмыкия",
    "timezone_raw": "Europe/Moscow",
    "timezone": "Europe/Moscow"
  },
  {
    "name": "Елец",
    "lat": 52.615241,
    "lon": 38.528934,
    "population_thousands": 102.3,
    "region": "Липецкая область",
    "timezone_raw": "Europe/Moscow",
    "timezone": "Europe/Moscow"
  },
  {
    "name": "Ханты-Мансийск",
    "lat": 61.002398,
    "lon": 69.01848,
    "population_thousands": 101.5,
    "region": "Тюменская область",
    "timezone_raw": "Asia/Karachi",
    "timezone": "Asia/Yekaterinburg"
  },
  {
    "name": "Новокуйбышевск",
    "lat": 53.099457,
    "lon": 49.947738,
    "population_thousands": 100.5,
    "region": "Самарская область",
    "timezone_raw": "Asia/Dubai",
    "timezone": "Europe/Samara"
  },
  {
    "name": "Железногорск",
    "lat": 52.33802,
    "lon": 35.351687,
    "population_thousands": 100.4,
    "region": "Курская область",
    "timezone_raw": "Europe/Moscow",
    "timezone": "Europe/Moscow"
  },
  {
    "name": "Сергиев Посад",
    "lat": 56.306255,
    "lon": 38.150266,
    "population_thousands": 100.3,
    "region": "Московская область",
    "timezone_raw": "Europe/Moscow",
    "timezone": "Europe/Moscow"
  },
  {
    "name": "Зеленодольск",
    "lat": 55.846665,
    "lon": 48.501095,
    "population_thousands": 100.0,
    "region": "Республика Татарстан",
    "timezone_raw": "Europe/Moscow",
    "timezone": "Europe/Moscow"
  },
  {
    "name": "Тобольск",
    "lat": 58.20173,
    "lon": 68.253856,
    "population_thousands": 98.9,
    "region": "Тюменская область",
    "timezone_raw": "Asia/Karachi",
    "timezone": "Asia/Yekaterinburg"
  },
  {
    "name": "Воткинск",
    "lat": 57.051815,
    "lon": 53.98731,
    "population_thousands": 97.2,
    "region": "Удмуртская Республика",
    "timezone_raw": "Asia/Dubai",
    "timezone": "Europe/Samara"
  },
  {
    "name": "Междуреченск",
    "lat": 53.686529,
    "lon": 88.070275,
    "population_thousands": 96.3,
    "region": "Кемеровская область - Кузбасс",
    "timezone_raw": "Asia/Jakarta",
    "timezone": "Asia/Krasnoyarsk"
  },
  {
    "name": "Саров",
    "lat": 54.922827,
    "lon": 43.344809,
    "population_thousands": 96.1,
    "region": "Нижегородская область",
    "timezone_raw": "Europe/Moscow",
    "timezone": "Europe/Moscow"
  },
  {
    "name": "Серов",
    "lat": 59.604772,
    "lon": 60.575388,
    "population_thousands": 95.9,
    "region": "Свердловская область",
    "timezone_raw": "Asia/Karachi",
    "timezone": "Asia/Yekaterinburg"
  },
  {
    "name": "Михайловск",
    "lat": 45.129732,
    "lon": 42.028844,
    "population_thousands": 95.7,
    "region": "Ставропольский край",
    "timezone_raw": "Europe/Moscow",
    "timezone": "Europe/Moscow"
  },
  {
    "name": "Сарапул",
    "lat": 56.461577,
    "lon": 53.803766,
    "population_thousands": 95.4,
    "region": "Удмуртская Республика",
    "timezone_raw": "Asia/Dubai",
    "timezone": "Europe/Samara"
  },
  {
    "name": "Ленинск-Кузнецкий",
    "lat": 54.667449,
    "lon": 86.179732,
    "population_thousands": 94.4,
    "region": "Кемеровская область - Кузбасс",
    "timezone_raw": "Asia/Jakarta",
    "timezone": "Asia/Krasnoyarsk"
  },
  {
    "name": "Ухта",
    "lat": 63.556551,
    "lon": 53.701424,
    "population_thousands": 93.7,
    "region": "Республика Коми",
    "timezone_raw": "Europe/Moscow",
    "timezone": "Europe/Moscow"
  },
  {
    "name": "Воскресенск",
    "lat": 55.307152,
    "lon": 38.702795,
    "population_thousands": 92.9,
    "region": "Московская область",
    "timezone_raw": "Europe/Moscow",
    "timezone": "Europe/Moscow"
  },
  {
    "name": "Соликамск",
    "lat": 59.6483,
    "lon": 56.771009,
    "population_thousands": 92.6,
    "region": "Пермский край",
    "timezone_raw": "Asia/Karachi",
    "timezone": "Asia/Yekaterinburg"
  },
  {
    "name": "Глазов",
    "lat": 58.135923,
    "lon": 52.663504,
    "population_thousands": 92.3,
    "region": "Удмуртская Республика",
    "timezone_raw": "Asia/Dubai",
    "timezone": "Europe/Samara"
  },
  {
    "name": "Магадан",
    "lat": 59.568133,
    "lon": 150.808496,
    "population_thousands": 92.1,
    "region": "Магаданская область",
    "timezone_raw": "Asia/Sakhalin",
    "timezone": "Asia/Magadan"
  },
  {
    "name": "Гатчина",
    "lat": 59.565237,
    "lon": 30.128247,
    "population_thousands": 91.7,
    "region": "Ленинградская область",
    "timezone_raw": "Europe/Moscow",
    "timezone": "Europe/Moscow"
  },
  {
    "name": "Великие Луки",
    "lat": 56.332208,
    "lon": 30.550864,
    "population_thousands": 90.9,
    "region": "Псковская область",
    "timezone_raw": "Europe/Moscow",
    "timezone": "Europe/Moscow"
  },
  {
    "name": "Мичуринск",
    "lat": 52.891239,
    "lon": 40.510444,
    "population_thousands": 90.7,
    "region": "Тамбовская область",
    "timezone_raw": "Europe/Moscow",
    "timezone": "Europe/Moscow"
  },
  {
    "name": "Лобня",
    "lat": 56.032888,
    "lon": 37.461404,
    "population_thousands": 90.2,
    "region": "Московская область",
    "timezone_raw": "Europe/Moscow",
    "timezone": "Europe/Moscow"
  },
  {
    "name": "Анапа",
    "lat": 44.895043,
    "lon": 37.316328,
    "population_thousands": 88.9,
    "region": "Краснодарский край",
    "timezone_raw": "Europe/Moscow",
    "timezone": "Europe/Moscow"
  },
  {
    "name": "Канск",
    "lat": 56.205128,
    "lon": 95.70511,
    "population_thousands": 88.9,
    "region": "Красноярский край",
    "timezone_raw": "Asia/Jakarta",
    "timezone": "Asia/Krasnoyarsk"
  },
  {
    "name": "Каменск-Шахтинский",
    "lat": 48.320533,
    "lon": 40.268958,
    "population_thousands": 87.8,
    "region": "Ростовская область",
    "timezone_raw": "Europe/Moscow",
    "timezone": "Europe/Moscow"
  },
  {
    "name": "Киселевск",
    "lat": 54.006,
    "lon": 86.636612,
    "population_thousands": 86.6,
    "region": "Кемеровская область - Кузбасс",
    "timezone_raw": "Asia/Jakarta",
    "timezone": "Asia/Krasnoyarsk"
  },
  {
    "name": "Губкин",
    "lat": 51.283712,
    "lon": 37.534776,
    "population_thousands": 86.2,
    "region": "Белгородская область",
    "timezone_raw": "Europe/Moscow",
    "timezone": "Europe/Moscow"
  },
  {
    "name": "Бузулук",
    "lat": 52.788128,
    "lon": 52.262488,
    "population_thousands": 86.1,
    "region": "Оренбургская область",
    "timezone_raw": "Asia/Karachi",
    "timezone": "Asia/Yekaterinburg"
  },
  {
    "name": "Новотроицк",
    "lat": 51.19642,
    "lon": 58.301819,
    "population_thousands": 83.7,
    "region": "Оренбургская область",
    "timezone_raw": "Asia/Karachi",
    "timezone": "Asia/Yekaterinburg"
  },
  {
    "name": "Ейск",
    "lat": 46.71157,
    "lon": 38.27639,
    "population_thousands": 83.1,
    "region": "Краснодарский край",
    "timezone_raw": "Europe/Moscow",
    "timezone": "Europe/Moscow"
  },
  {
    "name": "Железногорск",
    "lat": 56.252904,
    "lon": 93.532273,
    "population_thousands": 82.6,
    "region": "Красноярский край",
    "timezone_raw": "Asia/Jakarta",
    "timezone": "Asia/Krasnoyarsk"
  },
  {
    "name": "Бугульма",
    "lat": 54.53635,
    "lon": 52.789585,
    "population_thousands": 82.5,
    "region": "Республика Татарстан",
    "timezone_raw": "Europe/Moscow",
    "timezone": "Europe/Moscow"
  },
  {
    "name": "Чайковский",
    "lat": 56.77815,
    "lon": 54.147796,
    "population_thousands": 82.4,
    "region": "Пермский край",
    "timezone_raw": "Asia/Karachi",
    "timezone": "Asia/Yekaterinburg"
  },
  {
    "name": "Ивантеевка",
    "lat": 55.974167,
    "lon": 37.920754,
    "population_thousands": 81.3,
    "region": "Московская область",
    "timezone_raw": "Europe/Moscow",
    "timezone": "Europe/Moscow"
  },
  {
    "name": "Кинешма",
    "lat": 57.442546,
    "lon": 42.168914,
    "population_thousands": 81.0,
    "region": "Ивановская область",
    "timezone_raw": "Europe/Moscow",
    "timezone": "Europe/Moscow"
  },
  {
    "name": "Юрга",
    "lat": 55.720269,
    "lon": 84.88864,
    "population_thousands": 80.8,
    "region": "Кемеровская область - Кузбасс",
    "timezone_raw": "Asia/Jakarta",
    "timezone": "Asia/Krasnoyarsk"
  },
  {
    "name": "Кузнецк",
    "lat": 53.113089,
    "lon": 46.605092,
    "population_thousands": 80.5,
    "region": "Пензенская область",
    "timezone_raw": "Europe/Moscow",
    "timezone": "Europe/Moscow"
  },
  {
    "name": "Усть-Илимск",
    "lat": 57.94305,
    "lon": 102.741573,
    "population_thousands": 80.4,
    "region": "Иркутская область",
    "timezone_raw": "Asia/Manila",
    "timezone": "Asia/Irkutsk"
  },
  {
    "name": "Азов",
    "lat": 47.112159,
    "lon": 39.423256,
    "population_thousands": 80.4,
    "region": "Ростовская область",
    "timezone_raw": "Europe/Moscow",
    "timezone": "Europe/Moscow"
  },
  {
    "name": "Новоуральск",
    "lat": 57.247257,
    "lon": 60.095671,
    "population_thousands": 80.4,
    "region": "Свердловская область",
    "timezone_raw": "Asia/Karachi",
    "timezone": "Asia/Yekaterinburg"
  },
  {
    "name": "Клин",
    "lat": 56.34256,
    "lon": 36.724003,
    "population_thousands": 79.7,
    "region": "Московская область",
    "timezone_raw": "Europe/Moscow",
    "timezone": "Europe/Moscow"
  },
  {
    "name": "Ялта",
    "lat": 44.495361,
    "lon": 34.166308,
    "population_thousands": 79.0,
    "region": "Республика Крым",
    "timezone_raw": "Europe/Moscow",
    "timezone": "Europe/Moscow"
  },
  {
    "name": "Озерск",
    "lat": 55.763154,
    "lon": 60.70762,
    "population_thousands": 78.4,
    "region": "Челябинская область",
    "timezone_raw": "Asia/Karachi",
    "timezone": "Asia/Yekaterinburg"
  },
  {
    "name": "Кропоткин",
    "lat": 45.433301,
    "lon": 40.572795,
    "population_thousands": 77.7,
    "region": "Краснодарский край",
    "timezone_raw": "Europe/Moscow",
    "timezone": "Europe/Moscow"
  },
  {
    "name": "Видное",
    "lat": 55.551725,
    "lon": 37.706198,
    "population_thousands": 77.0,
    "region": "Московская область",
    "timezone_raw": "Europe/Moscow",
    "timezone": "Europe/Moscow"
  },
  {
    "name": "Бор",
    "lat": 56.356546,
    "lon": 44.064648,
    "population_thousands": 76.9,
    "region": "Нижегородская область",
    "timezone_raw": "Europe/Moscow",
    "timezone": "Europe/Moscow"
  },
  {
    "name": "Геленджик",
    "lat": 44.563001,
    "lon": 38.079085,
    "population_thousands": 76.8,
    "region": "Краснодарский край",
    "timezone_raw": "Europe/Moscow",
    "timezone": "Europe/Moscow"
  },
  {
    "name": "Усолье-Сибирское",
    "lat": 52.756581,
    "lon": 103.638811,
    "population_thousands": 76.0,
    "region": "Иркутская область",
    "timezone_raw": "Asia/Manila",
    "timezone": "Asia/Irkutsk"
  },
  {
    "name": "Балашов",
    "lat": 51.53887,
    "lon": 43.183976,
    "population_thousands": 75.8,
    "region": "Саратовская область",
    "timezone_raw": "Asia/Dubai",
    "timezone": "Europe/Samara"
  },
  {
    "name": "Выборг",
    "lat": 60.71308,
    "lon": 28.732834,
    "population_thousands": 75.4,
    "region": "Ленинградская область",
    "timezone_raw": "Europe/Moscow",
    "timezone": "Europe/Moscow"
  },
  {
    "name": "Черногорск",
    "lat": 53.825934,
    "lon": 91.326023,
    "population_thousands": 75.4,
    "region": "Республика Хакасия",
    "timezone_raw": "Asia/Jakarta",
    "timezone": "Asia/Krasnoyarsk"
  },
  {
    "name": "Дубна",
    "lat": 56.741786,
    "lon": 37.175722,
    "population_thousands": 75.0,
    "region": "Московская область",
    "timezone_raw": "Europe/Moscow",
    "timezone": "Europe/Moscow"
  },
  {
    "name": "Шадринск",
    "lat": 56.087034,
    "lon": 63.629718,
    "population_thousands": 74.7,
    "region": "Курганская область",
    "timezone_raw": "Asia/Karachi",
    "timezone": "Asia/Yekaterinburg"
  },
  {
    "name": "Всеволожск",
    "lat": 60.019128,
    "lon": 30.645672,
    "population_thousands": 74.7,
    "region": "Ленинградская область",
    "timezone_raw": "Europe/Moscow",
    "timezone": "Europe/Moscow"
  },
  {
    "name": "Новоалтайск",
    "lat": 53.411976,
    "lon": 83.931107,
    "population_thousands": 74.6,
    "region": "Алтайский край",
    "timezone_raw": "Asia/Jakarta",
    "timezone": "Asia/Krasnoyarsk"
  },
  {
    "name": "Елабуга",
    "lat": 55.756711,
    "lon": 52.054379,
    "population_thousands": 74.0,
    "region": "Республика Татарстан",
    "timezone_raw": "Europe/Moscow",
    "timezone": "Europe/Moscow"
  },
  {
    "name": "Минеральные Воды",
    "lat": 44.208727,
    "lon": 43.138408,
    "population_thousands": 73.9,
    "region": "Ставропольский край",
    "timezone_raw": "Europe/Moscow",
    "timezone": "Europe/Moscow"
  },
  {
    "name": "Троицк",
    "lat": 54.084375,
    "lon": 61.558683,
    "population_thousands": 73.4,
    "region": "Челябинская область",
    "timezone_raw": "Asia/Karachi",
    "timezone": "Asia/Yekaterinburg"
  },
  {
    "name": "Егорьевск",
    "lat": 55.383011,
    "lon": 39.035832,
    "population_thousands": 72.8,
    "region": "Московская область",
    "timezone_raw": "Europe/Moscow",
    "timezone": "Europe/Moscow"
  },
  {
    "name": "Верхняя Пышма",
    "lat": 56.97589,
    "lon": 60.565038,
    "population_thousands": 72.7,
    "region": "Свердловская область",
    "timezone_raw": "Asia/Karachi",
    "timezone": "Asia/Yekaterinburg"
  },
  {
    "name": "Чехов",
    "lat": 55.150801,
    "lon": 37.453325,
    "population_thousands": 72.3,
    "region": "Московская область",
    "timezone_raw": "Europe/Moscow",
    "timezone": "Europe/Moscow"
  },
  {
    "name": "Биробиджан",
    "lat": 48.794645,
    "lon": 132.921721,
    "population_thousands": 71.8,
    "region": "Еврейская автономная область",
    "timezone_raw": "Australia/Brisbane",
    "timezone": "Asia/Vladivostok"
  },
  {
    "name": "Чапаевск",
    "lat": 52.928961,
    "lon": 49.867327,
    "population_thousands": 71.7,
    "region": "Самарская область",
    "timezone_raw": "Asia/Dubai",
    "timezone": "Europe/Samara"
  },
  {
    "name": "Белово",
    "lat": 54.422097,
    "lon": 86.303737,
    "population_thousands": 71.2,
    "region": "Кемеровская область - Кузбасс",
    "timezone_raw": "Asia/Jakarta",
    "timezone": "Asia/Krasnoyarsk"
  },
  {
    "name": "Кирово-Чепецк",
    "lat": 58.555942,
    "lon": 50.031685,
    "population_thousands": 69.8,
    "region": "Кировская область",
    "timezone_raw": "Europe/Moscow",
    "timezone": "Europe/Moscow"
  },
  {
    "name": "Дмитров",
    "lat": 56.347746,
    "lon": 37.526672,
    "population_thousands": 68.8,
    "region": "Московская область",
    "timezone_raw": "Europe/Moscow",
    "timezone": "Europe/Moscow"
  },
  {
    "name": "Туймазы",
    "lat": 54.599922,
    "lon": 53.695062,
    "population_thousands": 68.2,
    "region": "Республика Башкортостан",
    "timezone_raw": "Asia/Karachi",
    "timezone": "Asia/Yekaterinburg"
  },
  {
    "name": "Анжеро-Судженск",
    "lat": 56.078628,
    "lon": 86.020128,
    "population_thousands": 68.1,
    "region": "Кемеровская область - Кузбасс",
    "timezone_raw": "Asia/Jakarta",
    "timezone": "Asia/Krasnoyarsk"
  },
  {
    "name": "Феодосия",
    "lat": 45.031839,
    "lon": 35.382426,
    "population_thousands": 68.0,
    "region": "Республика Крым",
    "timezone_raw": "Europe/Moscow",
    "timezone": "Europe/Moscow"
  },
  {
    "name": "Славянск-на-Кубани",
    "lat": 45.260363,
    "lon": 38.125977,
    "population_thousands": 67.9,
    "region": "Краснодарский край",
    "timezone_raw": "Europe/Moscow",
    "timezone": "Europe/Moscow"
  },
  {
    "name": "Минусинск",
    "lat": 53.710459,
    "lon": 91.687291,
    "population_thousands": 67.9,
    "region": "Красноярский край",
    "timezone_raw": "Asia/Jakarta",
    "timezone": "Asia/Krasnoyarsk"
  },
  {
    "name": "Кстово",
    "lat": 56.143208,
    "lon": 44.16642,
    "population_thousands": 67.8,
    "region": "Нижегородская область",
    "timezone_raw": "Europe/Moscow",
    "timezone": "Europe/Moscow"
  },
  {
    "name": "Сосновый Бор",
    "lat": 59.877288,
    "lon": 29.129162,
    "population_thousands": 67.7,
    "region": "Ленинградская область",
    "timezone_raw": "Europe/Moscow",
    "timezone": "Europe/Moscow"
  },
  {
    "name": "Когалым",
    "lat": 62.263953,
    "lon": 74.482979,
    "population_thousands": 67.7,
    "region": "Тюменская область",
    "timezone_raw": "Asia/Karachi",
    "timezone": "Asia/Yekaterinburg"
  },
  {
    "name": "Георгиевск",
    "lat": 44.148569,
    "lon": 43.473985,
    "population_thousands": 66.4,
    "region": "Ставропольский край",
    "timezone_raw": "Europe/Moscow",
    "timezone": "Europe/Moscow"
  },
  {
    "name": "Сунжа",
    "lat": 43.32042,
    "lon": 45.047633,
    "population_thousands": 66.3,
    "region": "Республика Ингушетия",
    "timezone_raw": "Europe/Moscow",
    "timezone": "Europe/Moscow"
  },
  {
    "name": "Ступино",
    "lat": 54.886274,
    "lon": 38.078228,
    "population_thousands": 65.9,
    "region": "Московская область",
    "timezone_raw": "Europe/Moscow",
    "timezone": "Europe/Moscow"
  },
  {
    "name": "Буйнакск",
    "lat": 42.821442,
    "lon": 47.116526,
    "population_thousands": 65.7,
    "region": "Республика Дагестан",
    "timezone_raw": "Europe/Moscow",
    "timezone": "Europe/Moscow"
  },
  {
    "name": "Заречный",
    "lat": 53.196084,
    "lon": 45.168991,
    "population_thousands": 65.5,
    "region": "Пензенская область",
    "timezone_raw": "Europe/Moscow",
    "timezone": "Europe/Moscow"
  },
  {
    "name": "Белогорск",
    "lat": 50.921341,
    "lon": 128.473947,
    "population_thousands": 65.3,
    "region": "Амурская область",
    "timezone_raw": "Asia/Tokyo",
    "timezone": "Asia/Yakutsk"
  },
  {
    "name": "Мурино",
    "lat": 60.044862,
    "lon": 30.457146,
    "population_thousands": 64.9,
    "region": "Ленинградская область",
    "timezone_raw": "Europe/Moscow",
    "timezone": "Europe/Moscow"
  },
  {
    "name": "Наро-Фоминск",
    "lat": 55.386185,
    "lon": 36.734484,
    "population_thousands": 64.9,
    "region": "Московская область",
    "timezone_raw": "Europe/Moscow",
    "timezone": "Europe/Moscow"
  },
  {
    "name": "Кунгур",
    "lat": 57.42833,
    "lon": 56.943866,
    "population_thousands": 64.9,
    "region": "Пермский край",
    "timezone_raw": "Asia/Karachi",
    "timezone": "Asia/Yekaterinburg"
  },
  {
    "name": "Белорецк",
    "lat": 53.967649,
    "lon": 58.410042,
    "population_thousands": 64.9,
    "region": "Республика Башкортостан",
    "timezone_raw": "Asia/Karachi",
    "timezone": "Asia/Yekaterinburg"
  },
  {
    "name": "Горно-Алтайск",
    "lat": 51.958103,
    "lon": 85.960324,
    "population_thousands": 64.5,
    "region": "Республика Алтай",
    "timezone_raw": "Asia/Jakarta",
    "timezone": "Asia/Krasnoyarsk"
  },
  {
    "name": "Ишимбай",
    "lat": 53.454576,
    "lon": 56.043875,
    "population_thousands": 64.4,
    "region": "Республика Башкортостан",
    "timezone_raw": "Asia/Karachi",
    "timezone": "Asia/Yekaterinburg"
  },
  {
    "name": "Ишим",
    "lat": 56.110486,
    "lon": 69.479578,
    "population_thousands": 64.4,
    "region": "Тюменская область",
    "timezone_raw": "Asia/Karachi",
    "timezone": "Asia/Yekaterinburg"
  },
  {
    "name": "Павловский Посад",
    "lat": 55.780724,
    "lon": 38.659698,
    "population_thousands": 63.6,
    "region": "Московская область",
    "timezone_raw": "Europe/Moscow",
    "timezone": "Europe/Moscow"
  },
  {
    "name": "Гуково",
    "lat": 48.04489,
    "lon": 39.948467,
    "population_thousands": 63.2,
    "region": "Ростовская область",
    "timezone_raw": "Europe/Moscow",
    "timezone": "Europe/Moscow"
  },
  {
    "name": "Клинцы",
    "lat": 52.752912,
    "lon": 32.233911,
    "population_thousands": 63.0,
    "region": "Брянская область",
    "timezone_raw": "Europe/Moscow",
    "timezone": "Europe/Moscow"
  },
  {
    "name": "Асбест",
    "lat": 57.005228,
    "lon": 61.458116,
    "population_thousands": 62.9,
    "region": "Свердловская область",
    "timezone_raw": "Asia/Karachi",
    "timezone": "Asia/Yekaterinburg"
  },
  {
    "name": "Урус-Мартан",
    "lat": 43.120175,
    "lon": 45.539276,
    "population_thousands": 62.7,
    "region": "Чеченская Республика",
    "timezone_raw": "Europe/Moscow",
    "timezone": "Europe/Moscow"
  },
  {
    "name": "Россошь",
    "lat": 50.170195,
    "lon": 39.622697,
    "population_thousands": 62.6,
    "region": "Воронежская область",
    "timezone_raw": "Europe/Moscow",
    "timezone": "Europe/Moscow"
  },
  {
    "name": "Донской",
    "lat": 53.967894,
    "lon": 38.337182,
    "population_thousands": 62.6,
    "region": "Тульская область",
    "timezone_raw": "Europe/Moscow",
    "timezone": "Europe/Moscow"
  },
  {
    "name": "Котлас",
    "lat": 61.252897,
    "lon": 46.633242,
    "population_thousands": 62.0,
    "region": "Архангельская область",
    "timezone_raw": "Europe/Moscow",
    "timezone": "Europe/Moscow"
  },
  {
    "name": "Вольск",
    "lat": 52.045986,
    "lon": 47.38736,
    "population_thousands": 61.9,
    "region": "Саратовская область",
    "timezone_raw": "Asia/Dubai",
    "timezone": "Europe/Samara"
  },
  {
    "name": "Лениногорск",
    "lat": 54.596703,
    "lon": 52.443191,
    "population_thousands": 61.7,
    "region": "Республика Татарстан",
    "timezone_raw": "Europe/Moscow",
    "timezone": "Europe/Moscow"
  },
  {
    "name": "Зеленогорск",
    "lat": 56.113156,
    "lon": 94.58881,
    "population_thousands": 61.6,
    "region": "Красноярский край",
    "timezone_raw": "Asia/Jakarta",
    "timezone": "Asia/Krasnoyarsk"
  },
  {
    "name": "Ревда",
    "lat": 56.798632,
    "lon": 59.907159,
    "population_thousands": 61.5,
    "region": "Свердловская область",
    "timezone_raw": "Asia/Karachi",
    "timezone": "Asia/Yekaterinburg"
  },
  {
    "name": "Буденновск",
    "lat": 44.781607,
    "lon": 44.165034,
    "population_thousands": 61.3,
    "region": "Ставропольский край",
    "timezone_raw": "Europe/Moscow",
    "timezone": "Europe/Moscow"
  },
  {
    "name": "Туапсе",
    "lat": 44.110534,
    "lon": 39.08249,
    "population_thousands": 61.2,
    "region": "Краснодарский край",
    "timezone_raw": "Europe/Moscow",
    "timezone": "Europe/Moscow"
  },
  {
    "name": "Полевской",
    "lat": 56.495695,
    "lon": 60.23653,
    "population_thousands": 61.0,
    "region": "Свердловская область",
    "timezone_raw": "Asia/Karachi",
    "timezone": "Asia/Yekaterinburg"
  },
  {
    "name": "Сибай",
    "lat": 52.720465,
    "lon": 58.666378,
    "population_thousands": 60.8,
    "region": "Республика Башкортостан",
    "timezone_raw": "Asia/Karachi",
    "timezone": "Asia/Yekaterinburg"
  },
  {
    "name": "Избербаш",
    "lat": 42.565096,
    "lon": 47.871005,
    "population_thousands": 60.5,
    "region": "Республика Дагестан",
    "timezone_raw": "Europe/Moscow",
    "timezone": "Europe/Moscow"
  },
  {
    "name": "Лысьва",
    "lat": 58.099587,
    "lon": 57.808683,
    "population_thousands": 60.3,
    "region": "Пермский край",
    "timezone_raw": "Asia/Karachi",
    "timezone": "Asia/Yekaterinburg"
  },
  {
    "name": "Борисоглебск",
    "lat": 51.365575,
    "lon": 42.100833,
    "population_thousands": 59.9,
    "region": "Воронежская область",
    "timezone_raw": "Europe/Moscow",
    "timezone": "Europe/Moscow"
  },
  {
    "name": "Фрязино",
    "lat": 55.959059,
    "lon": 38.041024,
    "population_thousands": 59.5,
    "region": "Московская область",
    "timezone_raw": "Europe/Moscow",
    "timezone": "Europe/Moscow"
  },
  {
    "name": "Кумертау",
    "lat": 52.756494,
    "lon": 55.79702,
    "population_thousands": 59.5,
    "region": "Республика Башкортостан",
    "timezone_raw": "Asia/Karachi",
    "timezone": "Asia/Yekaterinburg"
  },
  {
    "name": "Чистополь",
    "lat": 55.369914,
    "lon": 50.628578,
    "population_thousands": 59.4,
    "region": "Республика Татарстан",
    "timezone_raw": "Europe/Moscow",
    "timezone": "Europe/Moscow"
  },
  {
    "name": "Лабинск",
    "lat": 44.635436,
    "lon": 40.724534,
    "population_thousands": 59.3,
    "region": "Краснодарский край",
    "timezone_raw": "Europe/Moscow",
    "timezone": "Europe/Moscow"
  },
  {
    "name": "Лесосибирск",
    "lat": 58.221681,
    "lon": 92.503787,
    "population_thousands": 59.3,
    "region": "Красноярский край",
    "timezone_raw": "Asia/Jakarta",
    "timezone": "Asia/Krasnoyarsk"
  },
  {
    "name": "Лыткарино",
    "lat": 55.577816,
    "lon": 37.903351,
    "population_thousands": 59.2,
    "region": "Московская область",
    "timezone_raw": "Europe/Moscow",
    "timezone": "Europe/Moscow"
  },
  {
    "name": "Белебей",
    "lat": 54.103458,
    "lon": 54.111313,
    "population_thousands": 59.2,
    "region": "Республика Башкортостан",
    "timezone_raw": "Asia/Karachi",
    "timezone": "Asia/Yekaterinburg"
  },
  {
    "name": "Березовский",
    "lat": 56.909592,
    "lon": 60.818091,
    "population_thousands": 59.0,
    "region": "Свердловская область",
    "timezone_raw": "Asia/Karachi",
    "timezone": "Asia/Yekaterinburg"
  },
  {
    "name": "Нягань",
    "lat": 62.14547,
    "lon": 65.394605,
    "population_thousands": 58.6,
    "region": "Тюменская область",
    "timezone_raw": "Asia/Karachi",
    "timezone": "Asia/Yekaterinburg"
  },
  {
    "name": "Прохладный",
    "lat": 43.75896,
    "lon": 44.010241,
    "population_thousands": 58.2,
    "region": "Кабардино-Балкарская Республика",
    "timezone_raw": "Europe/Moscow",
    "timezone": "Europe/Moscow"
  },
  {
    "name": "Тихвин",
    "lat": 59.62729,
    "lon": 33.507273,
    "population_thousands": 58.1,
    "region": "Ленинградская область",
    "timezone_raw": "Europe/Moscow",
    "timezone": "Europe/Moscow"
  },
  {
    "name": "Александров",
    "lat": 56.391819,
    "lon": 38.711112,
    "population_thousands": 57.9,
    "region": "Владимирская область",
    "timezone_raw": "Europe/Moscow",
    "timezone": "Europe/Moscow"
  },
  {
    "name": "Крымск",
    "lat": 44.93444,
    "lon": 37.98558,
    "population_thousands": 57.9,
    "region": "Краснодарский край",
    "timezone_raw": "Europe/Moscow",
    "timezone": "Europe/Moscow"
  },
  {
    "name": "Нерюнгри",
    "lat": 56.659995,
    "lon": 124.72024,
    "population_thousands": 57.9,
    "region": "Республика Саха (Якутия)",
    "timezone_raw": "Asia/Tokyo",
    "timezone": "Asia/Yakutsk"
  },
  {
    "name": "Ржев",
    "lat": 56.262881,
    "lon": 34.3291,
    "population_thousands": 57.5,
    "region": "Тверская область",
    "timezone_raw": "Europe/Moscow",
    "timezone": "Europe/Moscow"
  },
  {
    "name": "Алексин",
    "lat": 54.508335,
    "lon": 37.047807,
    "population_thousands": 57.5,
    "region": "Тульская область",
    "timezone_raw": "Europe/Moscow",
    "timezone": "Europe/Moscow"
  },
  {
    "name": "Михайловка",
    "lat": 50.070872,
    "lon": 43.240151,
    "population_thousands": 57.4,
    "region": "Волгоградская область",
    "timezone_raw": "Europe/Moscow",
    "timezone": "Europe/Moscow"
  },
  {
    "name": "Тихорецк",
    "lat": 45.854635,
    "lon": 40.126027,
    "population_thousands": 57.1,
    "region": "Краснодарский край",
    "timezone_raw": "Europe/Moscow",
    "timezone": "Europe/Moscow"
  },
  {
    "name": "Щекино",
    "lat": 54.002065,
    "lon": 37.517629,
    "population_thousands": 57.1,
    "region": "Тульская область",
    "timezone_raw": "Europe/Moscow",
    "timezone": "Europe/Moscow"
  },
  {
    "name": "Шуя",
    "lat": 56.856023,
    "lon": 41.380094,
    "population_thousands": 57.0,
    "region": "Ивановская область",
    "timezone_raw": "Europe/Moscow",
    "timezone": "Europe/Moscow"
  },
  {
    "name": "Сальск",
    "lat": 46.475209,
    "lon": 41.541041,
    "population_thousands": 56.8,
    "region": "Ростовская область",
    "timezone_raw": "Europe/Moscow",
    "timezone": "Europe/Moscow"
  },
  {
    "name": "Павлово",
    "lat": 55.979756,
    "lon": 43.099504,
    "population_thousands": 56.7,
    "region": "Нижегородская область",
    "timezone_raw": "Europe/Moscow",
    "timezone": "Europe/Moscow"
  },
  {
    "name": "Мелеуз",
    "lat": 52.958953,
    "lon": 55.928284,
    "population_thousands": 56.7,
    "region": "Республика Башкортостан",
    "timezone_raw": "Asia/Karachi",
    "timezone": "Asia/Yekaterinburg"
  },
  {
    "name": "Сертолово",
    "lat": 60.144693,
    "lon": 30.209592,
    "population_thousands": 56.6,
    "region": "Ленинградская область",
    "timezone_raw": "Europe/Moscow",
    "timezone": "Europe/Moscow"
  },
  {
    "name": "Дзержинский",
    "lat": 55.624087,
    "lon": 37.844028,
    "population_thousands": 56.4,
    "region": "Московская область",
    "timezone_raw": "Europe/Moscow",
    "timezone": "Europe/Moscow"
  },
  {
    "name": "Краснотурьинск",
    "lat": 59.763663,
    "lon": 60.193452,
    "population_thousands": 56.3,
    "region": "Свердловская область",
    "timezone_raw": "Asia/Karachi",
    "timezone": "Asia/Yekaterinburg"
  },
  {
    "name": "Искитим",
    "lat": 54.62676,
    "lon": 83.295124,
    "population_thousands": 56.0,
    "region": "Новосибирская область",
    "timezone_raw": "Asia/Jakarta",
    "timezone": "Asia/Krasnoyarsk"
  },
  {
    "name": "Гудермес",
    "lat": 43.351914,
    "lon": 46.103564,
    "population_thousands": 55.9,
    "region": "Чеченская Республика",
    "timezone_raw": "Europe/Moscow",
    "timezone": "Europe/Moscow"
  },
  {
    "name": "Шали",
    "lat": 43.148869,
    "lon": 45.900963,
    "population_thousands": 55.1,
    "region": "Чеченская Республика",
    "timezone_raw": "Europe/Moscow",
    "timezone": "Europe/Moscow"
  },
  {
    "name": "Апатиты",
    "lat": 67.567776,
    "lon": 33.406793,
    "population_thousands": 54.7,
    "region": "Мурманская область",
    "timezone_raw": "Europe/Moscow",
    "timezone": "Europe/Moscow"
  },
  {
    "name": "Свободный",
    "lat": 51.36141,
    "lon": 128.121973,
    "population_thousands": 54.0,
    "region": "Амурская область",
    "timezone_raw": "Asia/Tokyo",
    "timezone": "Asia/Yakutsk"
  },
  {
    "name": "Североморск",
    "lat": 69.07668,
    "lon": 33.417776,
    "population_thousands": 53.6,
    "region": "Мурманская область",
    "timezone_raw": "Europe/Moscow",
    "timezone": "Europe/Moscow"
  },
  {
    "name": "Лиски",
    "lat": 50.994563,
    "lon": 39.518491,
    "population_thousands": 53.5,
    "region": "Воронежская область",
    "timezone_raw": "Europe/Moscow",
    "timezone": "Europe/Moscow"
  },
  {
    "name": "Волжск",
    "lat": 55.862316,
    "lon": 48.371508,
    "population_thousands": 53.2,
    "region": "Республика Марий Эл",
    "timezone_raw": "Europe/Moscow",
    "timezone": "Europe/Moscow"
  },
  {
    "name": "Выкса",
    "lat": 55.320773,
    "lon": 42.167883,
    "population_thousands": 53.0,
    "region": "Нижегородская область",
    "timezone_raw": "Europe/Moscow",
    "timezone": "Europe/Moscow"
  },
  {
    "name": "Гусь-Хрустальный",
    "lat": 55.619875,
    "lon": 40.657993,
    "population_thousands": 52.8,
    "region": "Владимирская область",
    "timezone_raw": "Europe/Moscow",
    "timezone": "Europe/Moscow"
  },
  {
    "name": "Воркута",
    "lat": 67.497408,
    "lon": 64.061034,
    "population_thousands": 52.8,
    "region": "Республика Коми",
    "timezone_raw": "Europe/Moscow",
    "timezone": "Europe/Moscow"
  },
  {
    "name": "Краснокамск",
    "lat": 58.082206,
    "lon": 55.747994,
    "population_thousands": 52.5,
    "region": "Пермский край",
    "timezone_raw": "Asia/Karachi",
    "timezone": "Asia/Yekaterinburg"
  },
  {
    "name": "Вязьма",
    "lat": 55.211698,
    "lon": 34.295166,
    "population_thousands": 52.3,
    "region": "Смоленская область",
    "timezone_raw": "Europe/Moscow",
    "timezone": "Europe/Moscow"
  },
  {
    "name": "Арсеньев",
    "lat": 44.162203,
    "lon": 133.269621,
    "population_thousands": 52.2,
    "region": "Приморский край",
    "timezone_raw": "Australia/Brisbane",
    "timezone": "Asia/Vladivostok"
  },
  {
    "name": "Снежинск",
    "lat": 56.085149,
    "lon": 60.732491,
    "population_thousands": 51.8,
    "region": "Челябинская область",
    "timezone_raw": "Asia/Karachi",
    "timezone": "Asia/Yekaterinburg"
  },
  {
    "name": "Белореченск",
    "lat": 44.765188,
    "lon": 39.878149,
    "population_thousands": 51.6,
    "region": "Краснодарский край",
    "timezone_raw": "Europe/Moscow",
    "timezone": "Europe/Moscow"
  },
  {
    "name": "Жигулевск",
    "lat": 53.401198,
    "lon": 49.494518,
    "population_thousands": 51.6,
    "region": "Самарская область",
    "timezone_raw": "Asia/Dubai",
    "timezone": "Europe/Samara"
  },
  {
    "name": "Краснокаменск",
    "lat": 50.09297,
    "lon": 118.032394,
    "population_thousands": 51.4,
    "region": "Забайкальский край",
    "timezone_raw": "Asia/Tokyo",
    "timezone": "Asia/Yakutsk"
  },
  {
    "name": "Салехард",
    "lat": 66.549208,
    "lon": 66.608532,
    "population_thousands": 51.0,
    "region": "Тюменская область",
    "timezone_raw": "Asia/Karachi",
    "timezone": "Asia/Yekaterinburg"
  },
  {
    "name": "Тимашевск",
    "lat": 45.615923,
    "lon": 38.935184,
    "population_thousands": 50.8,
    "region": "Краснодарский край",
    "timezone_raw": "Europe/Moscow",
    "timezone": "Europe/Moscow"
  },
  {
    "name": "Кириши",
    "lat": 59.474286,
    "lon": 32.062495,
    "population_thousands": 50.5,
    "region": "Ленинградская область",
    "timezone_raw": "Europe/Moscow",
    "timezone": "Europe/Moscow"
  },
  {
    "name": "Солнечногорск",
    "lat": 56.185102,
    "lon": 36.977631,
    "population_thousands": 50.2,
    "region": "Московская область",
    "timezone_raw": "Europe/Moscow",
    "timezone": "Europe/Moscow"
  },
  {
    "name": "Черемхово",
    "lat": 53.13691,
    "lon": 103.090127,
    "population_thousands": 50.1,
    "region": "Иркутская область",
    "timezone_raw": "Asia/Manila",
    "timezone": "Asia/Irkutsk"
  },
  {
    "name": "Назарово",
    "lat": 56.01138,
    "lon": 90.416877,
    "population_thousands": 49.7,
    "region": "Красноярский край",
    "timezone_raw": "Asia/Jakarta",
    "timezone": "Asia/Krasnoyarsk"
  },
  {
    "name": "Узловая",
    "lat": 53.973045,
    "lon": 38.17632,
    "population_thousands": 49.7,
    "region": "Тульская область",
    "timezone_raw": "Europe/Moscow",
    "timezone": "Europe/Moscow"
  },
  {
    "name": "Кизляр",
    "lat": 43.848408,
    "lon": 46.72337,
    "population_thousands": 49.4,
    "region": "Республика Дагестан",
    "timezone_raw": "Europe/Moscow",
    "timezone": "Europe/Moscow"
  },
  {
    "name": "Лесной",
    "lat": 58.634852,
    "lon": 59.798156,
    "population_thousands": 49.3,
    "region": "Свердловская область",
    "timezone_raw": "Asia/Karachi",
    "timezone": "Asia/Yekaterinburg"
  },
  {
    "name": "Котельники",
    "lat": 55.659793,
    "lon": 37.863116,
    "population_thousands": 49.0,
    "region": "Московская область",
    "timezone_raw": "Europe/Moscow",
    "timezone": "Europe/Moscow"
  },
  {
    "name": "Боровичи",
    "lat": 58.38402,
    "lon": 33.917593,
    "population_thousands": 49.0,
    "region": "Новгородская область",
    "timezone_raw": "Europe/Moscow",
    "timezone": "Europe/Moscow"
  },
  {
    "name": "Можга",
    "lat": 56.442777,
    "lon": 52.213789,
    "population_thousands": 49.0,
    "region": "Удмуртская Республика",
    "timezone_raw": "Asia/Dubai",
    "timezone": "Europe/Samara"
  },
  {
    "name": "Рославль",
    "lat": 53.944956,
    "lon": 32.848026,
    "population_thousands": 48.9,
    "region": "Смоленская область",
    "timezone_raw": "Europe/Moscow",
    "timezone": "Europe/Moscow"
  },
  {
    "name": "Балахна",
    "lat": 56.495036,
    "lon": 43.575842,
    "population_thousands": 48.5,
    "region": "Нижегородская область",
    "timezone_raw": "Europe/Moscow",
    "timezone": "Europe/Moscow"
  },
  {
    "name": "Бугуруслан",
    "lat": 53.652373,
    "lon": 52.432685,
    "population_thousands": 48.5,
    "region": "Оренбургская область",
    "timezone_raw": "Asia/Karachi",
    "timezone": "Asia/Yekaterinburg"
  },
  {
    "name": "Шелехов",
    "lat": 52.210254,
    "lon": 104.097329,
    "population_thousands": 48.4,
    "region": "Иркутская область",
    "timezone_raw": "Asia/Manila",
    "timezone": "Asia/Irkutsk"
  },
  {
    "name": "Курганинск",
    "lat": 44.887703,
    "lon": 40.591324,
    "population_thousands": 48.2,
    "region": "Краснодарский край",
    "timezone_raw": "Europe/Moscow",
    "timezone": "Europe/Moscow"
  },
  {
    "name": "Кашира",
    "lat": 54.853337,
    "lon": 38.190439,
    "population_thousands": 47.4,
    "region": "Московская область",
    "timezone_raw": "Europe/Moscow",
    "timezone": "Europe/Moscow"
  },
  {
    "name": "Ливны",
    "lat": 52.428456,
    "lon": 37.603951,
    "population_thousands": 47.2,
    "region": "Орловская область",
    "timezone_raw": "Europe/Moscow",
    "timezone": "Europe/Moscow"
  },
  {
    "name": "Отрадный",
    "lat": 53.380085,
    "lon": 51.34386,
    "population_thousands": 47.1,
    "region": "Самарская область",
    "timezone_raw": "Asia/Dubai",
    "timezone": "Europe/Samara"
  },
  {
    "name": "Грязи",
    "lat": 52.48741,
    "lon": 39.933114,
    "population_thousands": 46.7,
    "region": "Липецкая область",
    "timezone_raw": "Europe/Moscow",
    "timezone": "Europe/Moscow"
  },
  {
    "name": "Донецк",
    "lat": 48.335071,
    "lon": 39.945891,
    "population_thousands": 46.7,
    "region": "Ростовская область",
    "timezone_raw": "Europe/Moscow",
    "timezone": "Europe/Moscow"
  },
  {
    "name": "Мегион",
    "lat": 61.031871,
    "lon": 76.102588,
    "population_thousands": 46.6,
    "region": "Тюменская область",
    "timezone_raw": "Asia/Karachi",
    "timezone": "Asia/Yekaterinburg"
  },
  {
    "name": "Бирск",
    "lat": 55.415575,
    "lon": 55.558221,
    "population_thousands": 46.5,
    "region": "Республика Башкортостан",
    "timezone_raw": "Asia/Karachi",
    "timezone": "Asia/Yekaterinburg"
  },
  {
    "name": "Саяногорск",
    "lat": 53.100808,
    "lon": 91.412245,
    "population_thousands": 46.0,
    "region": "Республика Хакасия",
    "timezone_raw": "Asia/Jakarta",
    "timezone": "Asia/Krasnoyarsk"
  },
  {
    "name": "Аксай",
    "lat": 47.267631,
    "lon": 39.875687,
    "population_thousands": 46.0,
    "region": "Ростовская область",
    "timezone_raw": "Europe/Moscow",
    "timezone": "Europe/Moscow"
  },
  {
    "name": "Заринск",
    "lat": 53.706348,
    "lon": 84.931508,
    "population_thousands": 45.9,
    "region": "Алтайский край",
    "timezone_raw": "Asia/Jakarta",
    "timezone": "Asia/Krasnoyarsk"
  },
  {
    "name": "Березовский",
    "lat": 55.669351,
    "lon": 86.274446,
    "population_thousands": 45.6,
    "region": "Кемеровская область - Кузбасс",
    "timezone_raw": "Asia/Jakarta",
    "timezone": "Asia/Krasnoyarsk"
  },
  {
    "name": "Вышний Волочек",
    "lat": 57.568302,
    "lon": 34.540402,
    "population_thousands": 45.5,
    "region": "Тверская область",
    "timezone_raw": "Europe/Moscow",
    "timezone": "Europe/Moscow"
  },
  {
    "name": "Кингисепп",
    "lat": 59.374043,
    "lon": 28.611244,
    "population_thousands": 45.2,
    "region": "Ленинградская область",
    "timezone_raw": "Europe/Moscow",
    "timezone": "Europe/Moscow"
  },
  {
    "name": "Надым",
    "lat": 65.537797,
    "lon": 72.518274,
    "population_thousands": 44.8,
    "region": "Тюменская область",
    "timezone_raw": "Asia/Karachi",
    "timezone": "Asia/Yekaterinburg"
  },
  {
    "name": "Канаш",
    "lat": 55.507,
    "lon": 47.491827,
    "population_thousands": 44.8,
    "region": "Чувашская Республика",
    "timezone_raw": "Europe/Moscow",
    "timezone": "Europe/Moscow"
  },
  {
    "name": "Лангепас",
    "lat": 61.253694,
    "lon": 75.180776,
    "population_thousands": 44.6,
    "region": "Тюменская область",
    "timezone_raw": "Asia/Karachi",
    "timezone": "Asia/Yekaterinburg"
  },
  {
    "name": "Торжок",
    "lat": 57.04133,
    "lon": 34.960234,
    "population_thousands": 44.4,
    "region": "Тверская область",
    "timezone_raw": "Europe/Moscow",
    "timezone": "Europe/Moscow"
  },
  {
    "name": "Волхов",
    "lat": 59.900596,
    "lon": 32.352076,
    "population_thousands": 44.3,
    "region": "Ленинградская область",
    "timezone_raw": "Europe/Moscow",
    "timezone": "Europe/Moscow"
  },
  {
    "name": "Рузаевка",
    "lat": 54.058197,
    "lon": 44.949047,
    "population_thousands": 44.3,
    "region": "Республика Мордовия",
    "timezone_raw": "Europe/Moscow",
    "timezone": "Europe/Moscow"
  },
  {
    "name": "Чусовой",
    "lat": 58.29746,
    "lon": 57.819361,
    "population_thousands": 43.7,
    "region": "Пермский край",
    "timezone_raw": "Asia/Karachi",
    "timezone": "Asia/Yekaterinburg"
  },
  {
    "name": "Радужный",
    "lat": 62.134289,
    "lon": 77.458409,
    "population_thousands": 43.7,
    "region": "Тюменская область",
    "timezone_raw": "Asia/Karachi",
    "timezone": "Asia/Yekaterinburg"
  },
  {
    "name": "Куйбышев",
    "lat": 55.468509,
    "lon": 78.324205,
    "population_thousands": 43.5,
    "region": "Новосибирская область",
    "timezone_raw": "Asia/Jakarta",
    "timezone": "Asia/Krasnoyarsk"
  },
  {
    "name": "Краснознаменск",
    "lat": 55.597896,
    "lon": 37.039371,
    "population_thousands": 43.2,
    "region": "Московская область",
    "timezone_raw": "Europe/Moscow",
    "timezone": "Europe/Moscow"
  },
  {
    "name": "Кимры",
    "lat": 56.873321,
    "lon": 37.35566,
    "population_thousands": 43.2,
    "region": "Тверская область",
    "timezone_raw": "Europe/Moscow",
    "timezone": "Europe/Moscow"
  },
  {
    "name": "Карабулак",
    "lat": 43.305525,
    "lon": 44.909458,
    "population_thousands": 42.7,
    "region": "Республика Ингушетия",
    "timezone_raw": "Europe/Moscow",
    "timezone": "Europe/Moscow"
  },
  {
    "name": "Ярцево",
    "lat": 55.056473,
    "lon": 32.69023,
    "population_thousands": 42.7,
    "region": "Смоленская область",
    "timezone_raw": "Europe/Moscow",
    "timezone": "Europe/Moscow"
  },
  {
    "name": "Рассказово",
    "lat": 52.653883,
    "lon": 41.874285,
    "population_thousands": 42.7,
    "region": "Тамбовская область",
    "timezone_raw": "Europe/Moscow",
    "timezone": "Europe/Moscow"
  },
  {
    "name": "Кореновск",
    "lat": 45.46417,
    "lon": 39.458949,
    "population_thousands": 42.4,
    "region": "Краснодарский край",
    "timezone_raw": "Europe/Moscow",
    "timezone": "Europe/Moscow"
  },
  {
    "name": "Кольчугино",
    "lat": 56.332725,
    "lon": 39.391336,
    "population_thousands": 42.0,
    "region": "Владимирская область",
    "timezone_raw": "Europe/Moscow",
    "timezone": "Europe/Moscow"
  },
  {
    "name": "Моздок",
    "lat": 43.747134,
    "lon": 44.656961,
    "population_thousands": 42.0,
    "region": "Республика Северная Осетия – Алания",
    "timezone_raw": "Europe/Moscow",
    "timezone": "Europe/Moscow"
  },
  {
    "name": "Осинники",
    "lat": 53.598805,
    "lon": 87.337127,
    "population_thousands": 41.7,
    "region": "Кемеровская область - Кузбасс",
    "timezone_raw": "Asia/Jakarta",
    "timezone": "Asia/Krasnoyarsk"
  },
  {
    "name": "Темрюк",
    "lat": 45.261095,
    "lon": 37.445441,
    "population_thousands": 41.4,
    "region": "Краснодарский край",
    "timezone_raw": "Europe/Moscow",
    "timezone": "Europe/Moscow"
  },
  {
    "name": "Сатка",
    "lat": 55.040529,
    "lon": 59.028897,
    "population_thousands": 41.3,
    "region": "Челябинская область",
    "timezone_raw": "Asia/Karachi",
    "timezone": "Asia/Yekaterinburg"
  },
  {
    "name": "Чебаркуль",
    "lat": 54.981857,
    "lon": 60.377312,
    "population_thousands": 41.3,
    "region": "Челябинская область",
    "timezone_raw": "Asia/Karachi",
    "timezone": "Asia/Yekaterinburg"
  },
  {
    "name": "Мончегорск",
    "lat": 67.938615,
    "lon": 32.935972,
    "population_thousands": 41.2,
    "region": "Мурманская область",
    "timezone_raw": "Europe/Moscow",
    "timezone": "Europe/Moscow"
  },
  {
    "name": "Верхняя Салда",
    "lat": 58.04658,
    "lon": 60.556016,
    "population_thousands": 41.2,
    "region": "Свердловская область",
    "timezone_raw": "Asia/Karachi",
    "timezone": "Asia/Yekaterinburg"
  },
  {
    "name": "Лянтор",
    "lat": 61.639286,
    "lon": 72.179409,
    "population_thousands": 41.2,
    "region": "Тюменская область",
    "timezone_raw": "Asia/Karachi",
    "timezone": "Asia/Yekaterinburg"
  },
  {
    "name": "Сосновоборск",
    "lat": 56.120265,
    "lon": 93.335412,
    "population_thousands": 41.1,
    "region": "Красноярский край",
    "timezone_raw": "Asia/Jakarta",
    "timezone": "Asia/Krasnoyarsk"
  },
  {
    "name": "Кудрово",
    "lat": 59.907523,
    "lon": 30.512101,
    "population_thousands": 41.1,
    "region": "Ленинградская область",
    "timezone_raw": "Europe/Moscow",
    "timezone": "Europe/Moscow"
  },
  {
    "name": "Сафоново",
    "lat": 55.119966,
    "lon": 33.233699,
    "population_thousands": 41.1,
    "region": "Смоленская область",
    "timezone_raw": "Europe/Moscow",
    "timezone": "Europe/Moscow"
  },
  {
    "name": "Шебекино",
    "lat": 50.400488,
    "lon": 36.887789,
    "population_thousands": 40.9,
    "region": "Белгородская область",
    "timezone_raw": "Europe/Moscow",
    "timezone": "Europe/Moscow"
  },
  {
    "name": "Усть-Кут",
    "lat": 56.792818,
    "lon": 105.775734,
    "population_thousands": 40.8,
    "region": "Иркутская область",
    "timezone_raw": "Asia/Manila",
    "timezone": "Asia/Irkutsk"
  },
  {
    "name": "Мыски",
    "lat": 53.71257,
    "lon": 87.805565,
    "population_thousands": 40.8,
    "region": "Кемеровская область - Кузбасс",
    "timezone_raw": "Asia/Jakarta",
    "timezone": "Asia/Krasnoyarsk"
  },
  {
    "name": "Стрежевой",
    "lat": 60.732895,
    "lon": 77.604122,
    "population_thousands": 40.8,
    "region": "Томская область",
    "timezone_raw": "Asia/Jakarta",
    "timezone": "Asia/Krasnoyarsk"
  },
  {
    "name": "Пугачев",
    "lat": 52.015992,
    "lon": 48.797222,
    "population_thousands": 40.6,
    "region": "Саратовская область",
    "timezone_raw": "Asia/Dubai",
    "timezone": "Europe/Samara"
  },
  {
    "name": "Камень-на-Оби",
    "lat": 53.791397,
    "lon": 81.354505,
    "population_thousands": 40.5,
    "region": "Алтайский край",
    "timezone_raw": "Asia/Jakarta",
    "timezone": "Asia/Krasnoyarsk"
  },
  {
    "name": "Урай",
    "lat": 60.129695,
    "lon": 64.803851,
    "population_thousands": 40.5,
    "region": "Тюменская область",
    "timezone_raw": "Asia/Karachi",
    "timezone": "Asia/Yekaterinburg"
  },
  {
    "name": "Горячий Ключ",
    "lat": 44.634486,
    "lon": 39.135474,
    "population_thousands": 40.3,
    "region": "Краснодарский край",
    "timezone_raw": "Europe/Moscow",
    "timezone": "Europe/Moscow"
  },
  {
    "name": "Ялуторовск",
    "lat": 56.654729,
    "lon": 66.312299,
    "population_thousands": 40.3,
    "region": "Тюменская область",
    "timezone_raw": "Asia/Karachi",
    "timezone": "Asia/Yekaterinburg"
  },
  {
    "name": "Спасск-Дальний",
    "lat": 44.590117,
    "lon": 132.815729,
    "population_thousands": 39.8,
    "region": "Приморский край",
    "timezone_raw": "Australia/Brisbane",
    "timezone": "Asia/Vladivostok"
  },
  {
    "name": "Тутаев",
    "lat": 57.867499,
    "lon": 39.536963,
    "population_thousands": 39.8,
    "region": "Ярославская область",
    "timezone_raw": "Europe/Moscow",
    "timezone": "Europe/Moscow"
  },
  {
    "name": "Тулун",
    "lat": 54.557162,
    "lon": 100.57806,
    "population_thousands": 39.7,
    "region": "Иркутская область",
    "timezone_raw": "Asia/Manila",
    "timezone": "Asia/Irkutsk"
  },
  {
    "name": "Заинск",
    "lat": 55.299053,
    "lon": 52.006297,
    "population_thousands": 39.6,
    "region": "Республика Татарстан",
    "timezone_raw": "Europe/Moscow",
    "timezone": "Europe/Moscow"
  },
  {
    "name": "Пыть-Ях",
    "lat": 60.758583,
    "lon": 72.836562,
    "population_thousands": 39.6,
    "region": "Тюменская область",
    "timezone_raw": "Asia/Karachi",
    "timezone": "Asia/Yekaterinburg"
  },
  {
    "name": "Новозыбков",
    "lat": 52.537173,
    "lon": 31.935799,
    "population_thousands": 39.5,
    "region": "Брянская область",
    "timezone_raw": "Europe/Moscow",
    "timezone": "Europe/Moscow"
  },
  {
    "name": "Апшеронск",
    "lat": 44.458401,
    "lon": 39.729982,
    "population_thousands": 39.5,
    "region": "Краснодарский край",
    "timezone_raw": "Europe/Moscow",
    "timezone": "Europe/Moscow"
  },
  {
    "name": "Усть-Лабинск",
    "lat": 45.222736,
    "lon": 39.692958,
    "population_thousands": 39.5,
    "region": "Краснодарский край",
    "timezone_raw": "Europe/Moscow",
    "timezone": "Europe/Moscow"
  },
  {
    "name": "Елизово",
    "lat": 53.183037,
    "lon": 158.388355,
    "population_thousands": 39.3,
    "region": "Камчатский край",
    "timezone_raw": "Pacific/Fiji",
    "timezone": "Asia/Kamchatka"
  },
  {
    "name": "Белая Калитва",
    "lat": 48.176974,
    "lon": 40.803353,
    "population_thousands": 39.3,
    "region": "Ростовская область",
    "timezone_raw": "Europe/Moscow",
    "timezone": "Europe/Moscow"
  },
  {
    "name": "Аргун",
    "lat": 43.291677,
    "lon": 45.87231,
    "population_thousands": 39.3,
    "region": "Чеченская Республика",
    "timezone_raw": "Europe/Moscow",
    "timezone": "Europe/Moscow"
  },
  {
    "name": "Абинск",
    "lat": 44.867965,
    "lon": 38.161816,
    "population_thousands": 39.1,
    "region": "Краснодарский край",
    "timezone_raw": "Europe/Moscow",
    "timezone": "Europe/Moscow"
  },
  {
    "name": "Большой Камень",
    "lat": 43.111174,
    "lon": 132.348008,
    "population_thousands": 39.1,
    "region": "Приморский край",
    "timezone_raw": "Australia/Brisbane",
    "timezone": "Asia/Vladivostok"
  },
  {
    "name": "Советск",
    "lat": 55.080934,
    "lon": 21.888611,
    "population_thousands": 39.0,
    "region": "Калининградская область",
    "timezone_raw": "Africa/Johannesburg",
    "timezone": "Europe/Kaliningrad"
  },
  {
    "name": "Амурск",
    "lat": 50.234415,
    "lon": 136.879244,
    "population_thousands": 38.9,
    "region": "Хабаровский край",
    "timezone_raw": "Australia/Brisbane",
    "timezone": "Asia/Vladivostok"
  },
  {
    "name": "Саянск",
    "lat": 54.110724,
    "lon": 102.18015,
    "population_thousands": 38.8,
    "region": "Иркутская область",
    "timezone_raw": "Asia/Manila",
    "timezone": "Asia/Irkutsk"
  },
  {
    "name": "Малгобек",
    "lat": 43.509665,
    "lon": 44.590196,
    "population_thousands": 38.6,
    "region": "Республика Ингушетия",
    "timezone_raw": "Europe/Moscow",
    "timezone": "Europe/Moscow"
  },
  {
    "name": "Баксан",
    "lat": 43.681914,
    "lon": 43.534504,
    "population_thousands": 38.5,
    "region": "Кабардино-Балкарская Республика",
    "timezone_raw": "Europe/Moscow",
    "timezone": "Europe/Moscow"
  },
  {
    "name": "Ртищево",
    "lat": 52.261627,
    "lon": 43.784225,
    "population_thousands": 38.4,
    "region": "Саратовская область",
    "timezone_raw": "Asia/Dubai",
    "timezone": "Europe/Samara"
  },
  {
    "name": "Печора",
    "lat": 65.148584,
    "lon": 57.223978,
    "population_thousands": 38.2,
    "region": "Республика Коми",
    "timezone_raw": "Europe/Moscow",
    "timezone": "Europe/Moscow"
  },
  {
    "name": "Курчатов",
    "lat": 51.660408,
    "lon": 35.657222,
    "population_thousands": 38.1,
    "region": "Курская область",
    "timezone_raw": "Europe/Moscow",
    "timezone": "Europe/Moscow"
  },
  {
    "name": "Качканар",
    "lat": 58.705176,
    "lon": 59.483916,
    "population_thousands": 38.1,
    "region": "Свердловская область",
    "timezone_raw": "Asia/Karachi",
    "timezone": "Asia/Yekaterinburg"
  },
  {
    "name": "Джанкой",
    "lat": 45.709231,
    "lon": 34.388337,
    "population_thousands": 38.0,
    "region": "Республика Крым",
    "timezone_raw": "Europe/Moscow",
    "timezone": "Europe/Moscow"
  },
  {
    "name": "Моршанск",
    "lat": 53.443622,
    "lon": 41.811548,
    "population_thousands": 38.0,
    "region": "Тамбовская область",
    "timezone_raw": "Europe/Moscow",
    "timezone": "Europe/Moscow"
  },
  {
    "name": "Югорск",
    "lat": 61.312357,
    "lon": 63.336548,
    "population_thousands": 38.0,
    "region": "Тюменская область",
    "timezone_raw": "Asia/Karachi",
    "timezone": "Asia/Yekaterinburg"
  },
  {
    "name": "Мариинск",
    "lat": 56.212738,
    "lon": 87.745492,
    "population_thousands": 37.9,
    "region": "Кемеровская область - Кузбасс",
    "timezone_raw": "Asia/Jakarta",
    "timezone": "Asia/Krasnoyarsk"
  },
  {
    "name": "Учалы",
    "lat": 54.306737,
    "lon": 59.412546,
    "population_thousands": 37.9,
    "region": "Республика Башкортостан",
    "timezone_raw": "Asia/Karachi",
    "timezone": "Asia/Yekaterinburg"
  },
  {
    "name": "Переславль-Залесский",
    "lat": 56.736054,
    "lon": 38.854362,
    "population_thousands": 37.9,
    "region": "Ярославская область",
    "timezone_raw": "Europe/Moscow",
    "timezone": "Europe/Moscow"
  },
  {
    "name": "Алексеевка",
    "lat": 50.629965,
    "lon": 38.688034,
    "population_thousands": 37.8,
    "region": "Белгородская область",
    "timezone_raw": "Europe/Moscow",
    "timezone": "Europe/Moscow"
  },
  {
    "name": "Изобильный",
    "lat": 45.36843,
    "lon": 41.708702,
    "population_thousands": 37.8,
    "region": "Ставропольский край",
    "timezone_raw": "Europe/Moscow",
    "timezone": "Europe/Moscow"
  },
  {
    "name": "Новодвинск",
    "lat": 64.413685,
    "lon": 40.820814,
    "population_thousands": 37.7,
    "region": "Архангельская область",
    "timezone_raw": "Europe/Moscow",
    "timezone": "Europe/Moscow"
  },
  {
    "name": "Кизилюрт",
    "lat": 43.203825,
    "lon": 46.872964,
    "population_thousands": 37.7,
    "region": "Республика Дагестан",
    "timezone_raw": "Europe/Moscow",
    "timezone": "Europe/Moscow"
  },
  {
    "name": "Красноуфимск",
    "lat": 56.612387,
    "lon": 57.763664,
    "population_thousands": 37.7,
    "region": "Свердловская область",
    "timezone_raw": "Asia/Karachi",
    "timezone": "Asia/Yekaterinburg"
  },
  {
    "name": "Заволжье",
    "lat": 56.640429,
    "lon": 43.387249,
    "population_thousands": 37.6,
    "region": "Нижегородская область",
    "timezone_raw": "Europe/Moscow",
    "timezone": "Europe/Moscow"
  },
  {
    "name": "Красный Сулин",
    "lat": 47.883131,
    "lon": 40.07813,
    "population_thousands": 37.6,
    "region": "Ростовская область",
    "timezone_raw": "Europe/Moscow",
    "timezone": "Europe/Moscow"
  },
  {
    "name": "Южноуральск",
    "lat": 54.448927,
    "lon": 61.258116,
    "population_thousands": 37.6,
    "region": "Челябинская область",
    "timezone_raw": "Asia/Karachi",
    "timezone": "Asia/Yekaterinburg"
  },
  {
    "name": "Беслан",
    "lat": 43.193753,
    "lon": 44.533871,
    "population_thousands": 37.4,
    "region": "Республика Северная Осетия – Алания",
    "timezone_raw": "Europe/Moscow",
    "timezone": "Europe/Moscow"
  },
  {
    "name": "Людиново",
    "lat": 53.870083,
    "lon": 34.438592,
    "population_thousands": 37.3,
    "region": "Калужская область",
    "timezone_raw": "Europe/Moscow",
    "timezone": "Europe/Moscow"
  },
  {
    "name": "Усинск",
    "lat": 65.994147,
    "lon": 57.556942,
    "population_thousands": 37.2,
    "region": "Республика Коми",
    "timezone_raw": "Europe/Moscow",
    "timezone": "Europe/Moscow"
  },
  {
    "name": "Алапаевск",
    "lat": 57.847557,
    "lon": 61.669382,
    "population_thousands": 37.1,
    "region": "Свердловская область",
    "timezone_raw": "Asia/Karachi",
    "timezone": "Asia/Yekaterinburg"
  },
  {
    "name": "Реж",
    "lat": 57.371748,
    "lon": 61.383384,
    "population_thousands": 36.8,
    "region": "Свердловская область",
    "timezone_raw": "Asia/Karachi",
    "timezone": "Asia/Yekaterinburg"
  },
  {
    "name": "Урюпинск",
    "lat": 50.790379,
    "lon": 42.028851,
    "population_thousands": 36.7,
    "region": "Волгоградская область",
    "timezone_raw": "Europe/Moscow",
    "timezone": "Europe/Moscow"
  },
  {
    "name": "Шарыпово",
    "lat": 55.538974,
    "lon": 89.180104,
    "population_thousands": 36.7,
    "region": "Красноярский край",
    "timezone_raw": "Asia/Jakarta",
    "timezone": "Asia/Krasnoyarsk"
  },
  {
    "name": "Мценск",
    "lat": 53.278844,
    "lon": 36.574911,
    "population_thousands": 36.6,
    "region": "Орловская область",
    "timezone_raw": "Europe/Moscow",
    "timezone": "Europe/Moscow"
  },
  {
    "name": "Партизанск",
    "lat": 43.128058,
    "lon": 133.126457,
    "population_thousands": 36.6,
    "region": "Приморский край",
    "timezone_raw": "Australia/Brisbane",
    "timezone": "Asia/Vladivostok"
  },
  {
    "name": "Ахтубинск",
    "lat": 48.275203,
    "lon": 46.190646,
    "population_thousands": 36.5,
    "region": "Астраханская область",
    "timezone_raw": "Asia/Dubai",
    "timezone": "Europe/Samara"
  },
  {
    "name": "Ирбит",
    "lat": 57.683836,
    "lon": 63.057675,
    "population_thousands": 36.5,
    "region": "Свердловская область",
    "timezone_raw": "Asia/Karachi",
    "timezone": "Asia/Yekaterinburg"
  },
  {
    "name": "Конаково",
    "lat": 56.72752,
    "lon": 36.801272,
    "population_thousands": 36.5,
    "region": "Тверская область",
    "timezone_raw": "Europe/Moscow",
    "timezone": "Europe/Moscow"
  },
  {
    "name": "Сокол",
    "lat": 59.475861,
    "lon": 40.111419,
    "population_thousands": 36.4,
    "region": "Вологодская область",
    "timezone_raw": "Europe/Moscow",
    "timezone": "Europe/Moscow"
  },
  {
    "name": "Тосно",
    "lat": 59.54071,
    "lon": 30.877812,
    "population_thousands": 36.3,
    "region": "Ленинградская область",
    "timezone_raw": "Europe/Moscow",
    "timezone": "Europe/Moscow"
  },
  {
    "name": "Фролово",
    "lat": 49.764915,
    "lon": 43.664864,
    "population_thousands": 36.2,
    "region": "Волгоградская область",
    "timezone_raw": "Europe/Moscow",
    "timezone": "Europe/Moscow"
  },
  {
    "name": "Кыштым",
    "lat": 55.706128,
    "lon": 60.556378,
    "population_thousands": 36.2,
    "region": "Челябинская область",
    "timezone_raw": "Asia/Karachi",
    "timezone": "Asia/Yekaterinburg"
  },
  {
    "name": "Кинель",
    "lat": 53.22103,
    "lon": 50.634378,
    "population_thousands": 35.8,
    "region": "Самарская область",
    "timezone_raw": "Asia/Dubai",
    "timezone": "Europe/Samara"
  },
  {
    "name": "Коряжма",
    "lat": 61.288595,
    "lon": 47.100302,
    "population_thousands": 35.7,
    "region": "Архангельская область",
    "timezone_raw": "Europe/Moscow",
    "timezone": "Europe/Moscow"
  },
  {
    "name": "Черняховск",
    "lat": 54.624475,
    "lon": 21.796906,
    "population_thousands": 35.4,
    "region": "Калининградская область",
    "timezone_raw": "Africa/Johannesburg",
    "timezone": "Europe/Kaliningrad"
  },
  {
    "name": "Протвино",
    "lat": 54.870598,
    "lon": 37.218275,
    "population_thousands": 35.4,
    "region": "Московская область",
    "timezone_raw": "Europe/Moscow",
    "timezone": "Europe/Moscow"
  },
  {
    "name": "Мирный",
    "lat": 62.536232,
    "lon": 113.966773,
    "population_thousands": 35.4,
    "region": "Республика Саха (Якутия)",
    "timezone_raw": "Asia/Tokyo",
    "timezone": "Asia/Yakutsk"
  },
  {
    "name": "Светлоград",
    "lat": 45.328659,
    "lon": 42.856571,
    "population_thousands": 35.4,
    "region": "Ставропольский край",
    "timezone_raw": "Europe/Moscow",
    "timezone": "Europe/Moscow"
  },
  {
    "name": "Новокубанск",
    "lat": 45.10387,
    "lon": 41.047517,
    "population_thousands": 35.2,
    "region": "Краснодарский край",
    "timezone_raw": "Europe/Moscow",
    "timezone": "Europe/Moscow"
  },
  {
    "name": "Лесозаводск",
    "lat": 45.478009,
    "lon": 133.41862,
    "population_thousands": 35.1,
    "region": "Приморский край",
    "timezone_raw": "Australia/Brisbane",
    "timezone": "Asia/Vladivostok"
  },
  {
    "name": "Благовещенск",
    "lat": 55.049987,
    "lon": 55.955319,
    "population_thousands": 34.8,
    "region": "Республика Башкортостан",
    "timezone_raw": "Asia/Karachi",
    "timezone": "Asia/Yekaterinburg"
  },
  {
    "name": "Луга",
    "lat": 58.737403,
    "lon": 29.846578,
    "population_thousands": 34.6,
    "region": "Ленинградская область",
    "timezone_raw": "Europe/Moscow",
    "timezone": "Europe/Moscow"
  },
  {
    "name": "Каменка",
    "lat": 53.185546,
    "lon": 44.046972,
    "population_thousands": 34.6,
    "region": "Пензенская область",
    "timezone_raw": "Europe/Moscow",
    "timezone": "Europe/Moscow"
  },
  {
    "name": "Вязники",
    "lat": 56.29773,
    "lon": 42.26874,
    "population_thousands": 34.5,
    "region": "Владимирская область",
    "timezone_raw": "Europe/Moscow",
    "timezone": "Europe/Moscow"
  },
  {
    "name": "Миллерово",
    "lat": 48.926008,
    "lon": 40.398409,
    "population_thousands": 34.5,
    "region": "Ростовская область",
    "timezone_raw": "Europe/Moscow",
    "timezone": "Europe/Moscow"
  },
  {
    "name": "Ефремов",
    "lat": 53.146477,
    "lon": 38.092166,
    "population_thousands": 34.4,
    "region": "Тульская область",
    "timezone_raw": "Europe/Moscow",
    "timezone": "Europe/Moscow"
  },
  {
    "name": "Гулькевичи",
    "lat": 45.360512,
    "lon": 40.691839,
    "population_thousands": 34.3,
    "region": "Краснодарский край",
    "timezone_raw": "Europe/Moscow",
    "timezone": "Europe/Moscow"
  },
  {
    "name": "Валуйки",
    "lat": 50.211121,
    "lon": 38.099877,
    "population_thousands": 34.2,
    "region": "Белгородская область",
    "timezone_raw": "Europe/Moscow",
    "timezone": "Europe/Moscow"
  },
  {
    "name": "Азнакаево",
    "lat": 54.859864,
    "lon": 53.074553,
    "population_thousands": 34.2,
    "region": "Республика Татарстан",
    "timezone_raw": "Europe/Moscow",
    "timezone": "Europe/Moscow"
  },
  {
    "name": "Дальнегорск",
    "lat": 44.553946,
    "lon": 135.566272,
    "population_thousands": 34.1,
    "region": "Приморский край",
    "timezone_raw": "Australia/Brisbane",
    "timezone": "Asia/Vladivostok"
  },
  {
    "name": "Зеленокумск",
    "lat": 44.403267,
    "lon": 43.884188,
    "population_thousands": 34.1,
    "region": "Ставропольский край",
    "timezone_raw": "Europe/Moscow",
    "timezone": "Europe/Moscow"
  },
  {
    "name": "Корсаков",
    "lat": 46.632455,
    "lon": 142.799445,
    "population_thousands": 34.0,
    "region": "Сахалинская область",
    "timezone_raw": "Asia/Sakhalin",
    "timezone": "Asia/Magadan"
  },
  {
    "name": "Коркино",
    "lat": 54.890315,
    "lon": 61.403458,
    "population_thousands": 34.0,
    "region": "Челябинская область",
    "timezone_raw": "Asia/Karachi",
    "timezone": "Asia/Yekaterinburg"
  },